time(millisecond),datetime(utc),latitude,longitude,height_above_takeoff(feet),height_above_ground_at_drone_location(feet),ground_elevation_at_drone_location(feet),altitude_above_seaLevel(feet),height_sonar(feet),speed(mph),distance(feet),mileage(feet),satellites,gpslevel,voltage(v),max_altitude(feet),max_ascent(feet),max_speed(mph),max_distance(feet), xSpeed(mph), ySpeed(mph), zSpeed(mph), compass_heading(degrees), pitch(degrees), roll(degrees),isPhoto,isVideo,rc_elevator,rc_aileron,rc_throttle,rc_rudder,rc_elevator(percent),rc_aileron(percent),rc_throttle(percent),rc_rudder(percent),gimbal_heading(degrees),gimbal_pitch(degrees),battery_percent,voltageCell1,voltageCell2,voltageCell3,voltageCell4,voltageCell5,voltageCell6,current(A),battery_temperature(f),altitude(feet),ascent(feet),flycStateRaw,flycState,message
0,2022-08-30 19:59:05,33.0316083539573,-117.169629338135,0,Available with any HD 360 subscription,Available with any HD 360 subscription,193.68980803534,0.328084,0,0,0,13,5,0,193.68980803534,0,0,0,0,0,0,171.8, 3.9, -0.2,0,0,1024,1024,1024,1024,0,0,0,0,169.1,0,94,4.244,4.237,4.241,0,0,0,0,107.78,193.68980803534,0,41,Motors_Started,
100,2022-08-30 19:59:05,33.0316083708451,-117.169629368167,0,,,193.68980803534,0.328084,0,0.0110611224012,0.0110611224012,13,5,0,193.68980803534,0,0,0.0110611224012,0,0,0,171.8, 3.9, -0.2,0,0,1024,1024,1024,1024,0,0,0,0,169.1,0,94,4.244,4.237,4.241,0,0,0,0,107.78,193.68980803534,0,41,Motors_Started,
200,2022-08-30 19:59:06,33.031608338209,-117.169629463631,0,,,193.68980803534,0.328084,0,0.038814305704,0.042596129972,13,5,0,193.68980803534,0,0,0.038814305704,0,0,0,171.8, 4, -0.2,0,0,1024,1024,1024,1024,0,0,0,0,169.1,0,94,4.244,4.237,4.241,0,0,0,0,107.78,193.68980803534,0,41,Motors_Started,
300,2022-08-30 19:59:06,33.0316083516517,-117.169629500314,0,,,193.68980803534,0.328084,0,0.049614174816,0.054841865272,13,5,0,193.68980803534,0,0,0.049614174816,0,0,0,171.8, 3.9, -0.2,0,0,1024,1024,1024,1024,0,0,0,0,169.1,0,94,4.244,4.237,4.241,0,0,0,0,107.78,193.68980803534,0,41,Motors_Started,
400,2022-08-30 19:59:06,33.0316083240632,-117.169629423306,0,,,193.68980803534,0.328084,0,0.0282429799064,0.080457351656,13,5,0,193.68980803534,0,0,0.049614174816,0,0,0,171.8, 3.9, -0.2,0,0,1024,1024,1024,1024,0,0,0,0,169.1,0,94,4.244,4.237,4.241,0,0,0,0,107.78,193.68980803534,0,41,Motors_Started,
500,2022-08-30 19:59:06,33.0316083343232,-117.169629450096,0,,,193.68980803534,0.328084,0,0.034987862012,0.089466538296,13,5,0,193.68980803534,0,0,0.049614174816,0,0,0,171.8, 4, -0.2,0,0,1024,1024,1024,1024,0,0,0,0,169.1,0,94,4.244,4.237,4.241,0,0,0,0,107.78,193.68980803534,0,41,Motors_Started,
600,2022-08-30 19:59:06,33.0316083124629,-117.169629548947,0,,,193.68980803534,0.328084,0,0.066236222592,0.120736880504,13,5,0,193.68980803534,0,0,0.066236222592,0,0,0,171.8, 3.9, -0.2,0,0,1024,1024,1024,1024,0,0,0,0,169.1,0,94,4.244,4.237,4.241,0,0,0,0,107.78,193.68980803534,0,41,Motors_Started,"Setting new Return-To-Home altitude to 100m (328 ft). Data Recorder File Index is 63. Setting new Maximum Flight Altitude to 120m (394 ft)"
700,2022-08-30 19:59:06,33.0316083202707,-117.169629582108,0,,,193.68980803534,0.328084,0,0.075631236016,0.131272641996,13,5,0,193.68980803534,0,0,0.075631236016,0,0,0,171.8, 3.9, -0.2,0,0,1024,1024,1024,1024,0,0,0,0,169.1,0,94,4.244,4.237,4.241,0,0,0,0,107.78,193.68980803534,0,41,Motors_Started,
800,2022-08-30 19:59:06,33.0316083038637,-117.169629510675,0,,,193.68980803534,0.328084,0,0.05585137974,0.153927826448,13,5,0,193.68980803534,0,0,0.075631236016,0,0,0,171.8, 4, -0.2,0,0,1024,1024,1024,1024,0,0,0,0,169.1,0,94,4.244,4.237,4.241,0,0,0,0,107.78,193.68980803534,0,41,Motors_Started,
900,2022-08-30 19:59:06,33.0316083094558,-117.169629534921,0,,,193.68980803534,0.328084,0,0.0623441621,0.161619755828,13,5,12.755,193.68980803534,0,0,0.075631236016,0,0,0,171.8, 3.9, -0.2,0,0,1024,1024,1024,1024,0,0,0,0,169.1,0,94,4.244,4.237,4.241,0,0,0,1.786,107.78,193.68980803534,0,41,Motors_Started,
1000,2022-08-30 19:59:06,33.031608135307,-117.169629478591,0,,,193.68980803534,0.328084,0,0.090607614448,0.227452763184,13,5,12.755,193.68980803534,0,0,0.090607614448,0,0,0,171.9, 3.9, -0.2,0,0,1024,1024,1024,1024,0,0,0,0,169.1,0,94,4.244,4.237,4.241,0,0,0,1.786,107.78,193.68980803534,0,41,Motors_Started,
1100,2022-08-30 19:59:06,33.0316081242342,-117.16962949481,0,,,193.68980803534,0.328084,0,0.096547903352,0.233850401184,13,5,12.755,193.68980803534,0,0,0.096547903352,0,0,0,171.8, 3.9, -0.2,0,0,1024,1024,1024,1024,0,0,0,0,169.1,0,94,4.244,4.237,4.241,0,0,0,1.786,107.78,193.68980803534,0,41,Motors_Started,
1200,2022-08-30 19:59:07,33.0316082975755,-117.169629615295,0,,,193.68980803534,0.328084,0,0.087237207516,0.307048238172,13,5,12.755,193.68980803534,0,0,0.096547903352,0,0,0,172.2, 3.9, -0.2,0,0,1024,1024,1024,1024,0,0,0,0,169.1,0,94,4.244,4.237,4.241,0,0,0,1.786,107.78,193.68980803534,0,41,Motors_Started,
1300,2022-08-30 19:59:07,33.0316083029152,-117.16962963937,0,,,193.68980803534,0.328084,0,0.0940042681,0.314665692484,13,5,12.755,193.68980803534,0,0,0.096547903352,0,0,0,172.2, 3.9, -0.2,0,0,1024,1024,1024,1024,0,0,0,0,169.1,0,94,4.244,4.237,4.241,0,0,0,1.786,107.78,193.68980803534,0,41,Motors_Started,
1400,2022-08-30 19:59:07,33.031608294592,-117.169629579737,0,,,193.68980803534,0.328084,0,0.0770095169,0.33315617864,13,5,12.755,193.68980803534,0,0,0.096547903352,0,0,0,172.2, 3.9, -0.2,0,0,1024,1024,1024,1024,0,0,0,0,169.1,0,94,4.244,4.237,4.241,0,0,0,1.786,107.78,193.68980803534,0,41,Motors_Started,
1500,2022-08-30 19:59:07,33.0316082993609,-117.169629594618,0,,,193.68980803534,0.328084,0,0.080941931724,0.33803150688,13,5,12.755,193.68980803534,0,0,0.096547903352,0,0,0,172.2, 3.9, -0.2,0,0,1024,1024,1024,1024,0,0,0,0,169.1,0,94,4.244,4.237,4.241,0,0,0,1.786,107.78,193.68980803534,0,11,AutoTakeoff,
1600,2022-08-30 19:59:07,33.031608133102,-117.169629544814,0,,,193.68980803534,0.328084,0,0.102418638448,0.4005741598,13,5,12.755,193.68980803534,0,0,0.102418638448,0,0,0,172.2, 3.9, -0.2,0,0,1024,1024,1024,1024,0,0,0,0,169.1,0,94,4.244,4.237,4.241,0,0,0,1.786,107.78,193.68980803534,0,11,AutoTakeoff,
1700,2022-08-30 19:59:07,33.031608121834,-117.169629552484,0,,,193.68980803534,0.328084,0,0.107103349884,0.40530841192,13,5,12.755,193.68980803534,0,0,0.107103349884,0,0,0,172.3, 3.9, -0.2,0,0,1024,1024,1024,1024,0,0,0,0,169.1,0,94,4.244,4.237,4.241,0,0,0,1.786,107.78,193.68980803534,0,11,AutoTakeoff,
1800,2022-08-30 19:59:07,33.0316081380023,-117.169629679954,0,,,193.68980803534,0.328084,0,0.130919295528,0.44474082788,13,5,12.755,193.68980803534,0,0,0.130919295528,0,0,0,172.2, 3.8, -0.2,0,0,1024,1024,1024,1024,0,0,0,0,169.1,0,94,4.244,4.237,4.241,0,0,0,1.786,107.78,193.68980803534,0,11,AutoTakeoff,
1900,2022-08-30 19:59:07,33.0316081276869,-117.169629696655,0,,,193.68980803534,0.328084,0,0.13726378392,0.45108597244,13,5,12.721,193.68980803534,0,0,0.13726378392,0,0,0,172.4, 3.5, -0.3,0,0,1024,1024,1024,1024,0,0,0,0,169.1,0,94,4.264,4.256,4.253,0,0,0,3.762,107.78,193.68980803534,0,11,AutoTakeoff,
2000,2022-08-30 19:59:07,33.0316081470689,-117.16962964203,0,,,193.68980803534,0.328084,0,0.119742785984,0.46922901764,13,5,12.721,193.68980803534,0,0,0.13726378392,0,0,0,172.5, 0.3, -0.3,0,0,1024,1024,1024,1024,0,0,0,0,169.1,0,94,4.264,4.256,4.253,0,0,0,3.762,107.78,193.68980803534,0,11,AutoTakeoff,
2100,2022-08-30 19:59:07,33.0316081431669,-117.169629622051,0,,,193.68980803534,0.328084,0,0.116001972216,0.47550526456,13,5,12.721,193.68980803534,0,0,0.13726378392,0,0,-0.223694,172.7, -2.7, -0.7,0,0,1024,1024,1024,1024,0,0,0,0,169.1,0,94,4.264,4.256,4.253,0,0,0,3.762,107.78,193.68980803534,0,11,AutoTakeoff,
2200,2022-08-30 19:59:08,33.0316081365135,-117.169629528752,0,,,193.68980803534,0.328084,0,0.098455383728,0.50414699776,13,5,12.721,193.68980803534,0,0,0.13726378392,0,0,-0.671082,172.7, -1.6, -0.3,0,0,1024,1024,1024,1024,0,0,0,0,169.1,0,94,4.264,4.256,4.253,0,0,0,3.762,107.78,193.68980803534,0,11,AutoTakeoff,
2300,2022-08-30 19:59:08,33.0316080723076,-117.169629444505,0,,,193.68980803534,0.328084,0,0.107787733108,0.53896983352,13,5,12.721,193.68980803534,0,0,0.13726378392,0,0,-0.894776,172.8, -0.1, 0.2,0,0,1024,1024,1024,1024,0,0,0,0,169.2,0,94,4.264,4.256,4.253,0,0,0,3.762,107.78,193.68980803534,0,11,AutoTakeoff,
2400,2022-08-30 19:59:08,33.0316080237702,-117.1696293379,0.328084,,,194.01789203534,0.328084,0,0.120468507792,0.57607613392,13,5,12.721,194.01789203534,0.328084,0,0.13726378392,0,0,-1.11847,172.9, 0.8, 0.4,0,0,1024,1024,1024,1024,0,0,0,0,169.2,0,94,4.264,4.256,4.253,0,0,0,3.762,107.78,194.01789203534,0.328084,11,AutoTakeoff,
2500,2022-08-30 19:59:08,33.0316079582582,-117.169629250457,0.328084,,,194.01789203534,0.328084,0,0.14684055588,0.61194883848,13,5,12.721,194.01789203534,0.328084,0,0.14684055588,0,0,-1.11847,172.9, 0.9, 0.5,0,0,1024,1024,1024,1024,0,0,0,0,169.2,0,94,4.264,4.256,4.253,0,0,0,3.762,107.78,194.01789203534,0.328084,11,AutoTakeoff,
2600,2022-08-30 19:59:08,33.031607951301,-117.169629271775,0.656168,,,194.34597603534,0.656168,0,0.148304466688,0.6189468702,12,5,12.721,194.34597603534,0.656168,0,0.148304466688,0,0,-1.11847,172.9, 0.5, 0.7,0,0,1024,1024,1024,1024,0,0,0,0,169.2,0,94,4.264,4.256,4.253,0,0,0,3.762,107.78,194.34597603534,0.656168,11,AutoTakeoff,
2700,2022-08-30 19:59:08,33.0316079040865,-117.169629192565,0.656168,,,194.34597603534,0.984252,0,0.170067590744,0.64867456144,12,5,12.721,194.34597603534,0.656168,0,0.170067590744,0,0,-1.11847,172.8, 0.4, 1.2,0,0,1024,1024,1024,1024,0,0,0,0,169.3,0,94,4.264,4.256,4.253,0,0,0,3.762,107.78,194.34597603534,0.656168,11,AutoTakeoff,
2800,2022-08-30 19:59:08,33.0316080348351,-117.169629039909,0.984252,,,194.67406003534,0.984252,0,0.147910765888,0.71542653208,12,5,12.721,194.67406003534,0.984252,0,0.170067590744,0,0,-1.11847,172.8, 0.6, 1.2,0,0,1024,1024,1024,1024,0,0,0,0,169.3,0,94,4.264,4.256,4.253,0,0,0,3.762,107.78,194.67406003534,0.984252,11,AutoTakeoff,
2900,2022-08-30 19:59:08,33.0316080042305,-117.16962897333,0.984252,,,194.67406003534,1.312336,0,0.169506895188,0.73865159844,12,5,12.615,194.67406003534,0.984252,0,0.170067590744,0,0,-1.11847,172.8, 0.9, 0.9,0,0,1024,1024,1024,1024,0,0,0,0,169.3,0,94,4.207,4.193,4.202,0,0,0,4.265,107.78,194.67406003534,0.984252,11,AutoTakeoff,
3000,2022-08-30 19:59:08,33.0316079691094,-117.169629026448,1.312336,,,195.00214403534,1.312336,0,0.169719821704,0.75934385632,13,5,12.615,195.00214403534,1.312336,0,0.170067590744,0,0,-1.11847,172.9, 1, 0.8,0,0,1024,1024,1024,1024,0,0,0,0,169.3,0,94,4.207,4.193,4.202,0,0,0,4.265,107.78,195.00214403534,1.312336,11,AutoTakeoff,
3100,2022-08-30 19:59:08,33.0316079536895,-117.169628984531,1.312336,,,195.00214403534,1.64042,0,0.181729336524,0.77334648144,13,5,12.615,195.00214403534,1.312336,0,0.181729336524,0,0,-1.11847,173, 0.9, 0.6,0,0,1024,1024,1024,1024,0,0,0,0,169.3,0,94,4.207,4.193,4.202,0,0,0,4.265,107.78,195.00214403534,1.312336,11,AutoTakeoff,"Home Point updated. RTH altitude adjusted to 328 ft (Code: 120852)"
3200,2022-08-30 19:59:09,33.0316077339673,-117.169629349632,1.64042,,,195.33022803534,1.64042,0,0.2262303222,0.91081695828,13,5,12.615,195.33022803534,1.64042,0,0.2262303222,0,0,-1.11847,173, 0.8, 0.5,0,0,1024,1024,1024,1024,0,0,0,0,169.3,0,94,4.207,4.193,4.202,0,0,0,4.265,107.78,195.33022803534,1.64042,11,AutoTakeoff,
3300,2022-08-30 19:59:09,33.0316077244309,-117.169629350111,1.64042,,,195.33022803534,1.64042,0,0.229711621524,0.91430121036,13,5,12.615,195.33022803534,1.64042,0,0.229711621524,0,0,-1.11847,173, 0.5, 0.7,0,0,1024,1024,1024,1024,0,0,0,0,169.4,0,94,4.207,4.193,4.202,0,0,0,4.265,107.78,195.33022803534,1.64042,11,AutoTakeoff,
3400,2022-08-30 19:59:09,33.0316080304721,-117.169629268917,1.968504,,,195.65831203534,1.968504,0,0.119907484152,1.02868769696,14,5,12.615,195.65831203534,1.968504,0,0.229711621524,0,0,-1.11847,173, 0.3, 1.2,0,0,1024,1024,1024,1024,0,0,0,0,169.4,0,94,4.207,4.193,4.202,0,0,0,4.265,107.78,195.65831203534,1.968504,11,AutoTakeoff,
3500,2022-08-30 19:59:09,33.0316080635701,-117.169629265434,1.968504,,,195.65831203534,1.968504,0,0.10825623706,1.04081040076,14,5,12.615,195.65831203534,1.968504,0,0.229711621524,0,0,-0.894776,173.1, 0.1, 1.8,0,0,1024,1024,1024,1024,0,0,0,0,169.4,0,94,4.207,4.193,4.202,0,0,0,4.265,107.78,195.65831203534,1.968504,11,AutoTakeoff,
3600,2022-08-30 19:59:09,33.0316079634946,-117.169629156028,2.296588,,,195.98639603534,2.296588,0,0.152962931404,1.0903379614,14,5,12.615,195.98639603534,2.296588,0,0.229711621524,0,0,-0.894776,173.1, 0, 2.1,0,0,1024,1024,1024,1024,0,0,0,0,169.4,0,94,4.207,4.193,4.202,0,0,0,4.265,107.78,195.98639603534,2.296588,11,AutoTakeoff,
3700,2022-08-30 19:59:09,33.0316079904275,-117.169629177073,2.296588,,,195.98639603534,2.296588,0,0.141487537336,1.10208664944,14,5,12.615,195.98639603534,2.296588,0,0.229711621524,0,0,-0.894776,173.2, 0, 1.6,0,0,1024,1024,1024,1024,0,0,0,0,169.4,0,94,4.207,4.193,4.202,0,0,0,4.265,107.78,195.98639603534,2.296588,11,AutoTakeoff,
3800,2022-08-30 19:59:09,33.0316081589714,-117.169629577739,2.624672,,,196.31448003534,2.624672,0,0.10213911088,1.23920279556,14,5,12.615,196.31448003534,2.624672,0,0.229711621524,0,0,-0.894776,173.1, 0, 1.1,0,0,1024,1024,1052,1024,0,0,4,0,169.5,0,94,4.207,4.193,4.202,0,0,0,4.265,107.78,196.31448003534,2.624672,11,AutoTakeoff,
3900,2022-08-30 19:59:09,33.0316082077612,-117.169629637718,2.624672,,,196.31448003534,2.624672,0,0.106029859036,1.26476710084,14,5,12.597,196.31448003534,2.624672,0,0.229711621524,0,0,-0.894776,173.1, -0.1, 1.3,0,0,1024,1024,1100,1024,0,0,12,0,169.5,0,94,4.203,4.19,4.198,0,0,0,6.276,107.78,196.31448003534,2.624672,11,AutoTakeoff,
4000,2022-08-30 19:59:09,33.0316079947384,-117.169629306517,2.952756,,,196.64256403534,2.952756,0,0.131416998956,1.39245083196,14,5,12.597,196.64256403534,2.952756,0,0.229711621524,0,0,-0.894776,173, -0.2, 1.7,0,0,1024,1024,1116,1024,0,0,14,0,169.5,0,94,4.203,4.19,4.198,0,0,0,6.276,107.78,196.64256403534,2.952756,11,AutoTakeoff,
4100,2022-08-30 19:59:09,33.0316080272807,-117.169629336556,2.952756,,,196.64256403534,2.952756,0,0.119188652108,1.4074639558,13,5,12.597,196.64256403534,2.952756,0,0.229711621524,0,0,-0.894776,173, -0.1, 2,0,0,1024,1024,1128,1024,0,0,16,0,169.5,0,94,4.203,4.19,4.198,0,0,0,6.276,107.78,196.64256403534,2.952756,11,AutoTakeoff,
4200,2022-08-30 19:59:10,33.0316080025005,-117.169629310358,3.28084,,,196.97064803534,3.28084,0,0.128509846632,1.41954728952,13,5,12.597,196.97064803534,3.28084,0,0.229711621524,0,0,-1.11847,172.9, -0.1, 1.6,0,0,1024,1024,1152,1024,0,0,19,0,169.5,0,94,4.203,4.19,4.198,0,0,0,6.276,107.78,196.97064803534,3.28084,11,AutoTakeoff,
4300,2022-08-30 19:59:10,33.031608047295,-117.169629366019,3.28084,,,196.97064803534,3.28084,0,0.112210305428,1.44314637164,13,5,12.597,196.97064803534,3.28084,0,0.229711621524,0,0,-1.11847,172.7, 0.1, 1.3,0,0,1024,1024,1152,1024,0,0,19,0,169.5,0,94,4.203,4.19,4.198,0,0,0,6.276,107.78,196.97064803534,3.28084,11,AutoTakeoff,
4400,2022-08-30 19:59:10,33.0316081981492,-117.169629522019,3.608924,,,197.29873203534,3.608924,0,0.079969818832,1.51599086216,13,5,12.597,197.29873203534,3.608924,0,0.229711621524,0,0,-1.11847,172.6, -0.3, 1.2,0,0,1024,1024,1171,1024,0,0,22,0,169.5,0,94,4.203,4.19,4.198,0,0,0,6.276,107.78,197.29873203534,3.608924,6,P-GPS,
4500,2022-08-30 19:59:10,33.0316082800546,-117.169629611887,3.937008,,,197.62681603534,3.937008,0,0.087968834836,1.556594538,13,5,12.597,197.62681603534,3.937008,0,0.229711621524,0,0,-0.894776,172.8, -1.2, 1.1,0,0,1024,1024,1227,1024,0,0,31,0,169.5,0,94,4.203,4.19,4.198,0,0,0,6.276,107.78,197.62681603534,3.937008,6,P-GPS,
4600,2022-08-30 19:59:10,33.0316082483733,-117.169629431723,3.937008,,,197.62681603534,3.937008,0,0.047994096024,1.61290031408,13,5,12.597,197.62681603534,3.937008,0,0.229711621524,0,0,-0.671082,173, -2.2, 0.8,0,0,1024,1024,1387,1024,0,0,55,0,169.5,0,94,4.203,4.19,4.198,0,0,0,6.276,107.78,197.62681603534,3.937008,6,P-GPS,
4700,2022-08-30 19:59:10,33.0316083072356,-117.169629504763,3.937008,,,197.62681603534,3.937008,0,0.053743111956,1.64389112872,14,5,12.597,197.62681603534,3.937008,0,0.229711621524,0,0,-0.671082,173, -2.1, 0.4,0,0,1024,1024,1456,1024,0,0,65,0,169.5,0,94,4.203,4.19,4.198,0,0,0,6.276,107.78,197.62681603534,3.937008,6,P-GPS,
4800,2022-08-30 19:59:10,33.0316080314665,-117.169629430751,4.265092,,,197.95490003534,4.265092,0,0.121022969752,1.74702105328,14,5,12.597,197.95490003534,4.265092,0,0.229711621524,0,0,-0.894776,173, -1.7, 0.2,0,0,1024,1024,1509,1024,0,0,73,0,169.5,0,94,4.203,4.19,4.198,0,0,0,6.276,107.78,197.95490003534,4.265092,6,P-GPS,
4900,2022-08-30 19:59:10,33.0316080266431,-117.169629469195,4.265092,,,197.95490003534,4.265092,0,0.12596949222,1.75891081744,14,5,12.579,197.95490003534,4.265092,0,0.229711621524,0,0,-1.565858,172.9, -2, 0.1,0,0,1024,1024,1534,1024,0,0,77,0,169.5,0,94,4.204,4.187,4.195,0,0,0,6.304,107.96,197.95490003534,4.265092,6,P-GPS,
5000,2022-08-30 19:59:10,33.0316081744219,-117.169629461899,4.593176,,,198.28298403534,4.593176,0,0.075655842316,1.81287407376,13,5,12.579,198.28298403534,4.593176,0,0.229711621524,0,0,-2.460634,172.8, -2.2, -0.8,0,0,1024,1024,1559,1024,0,0,81,0,169.5,0,94,4.204,4.187,4.195,0,0,0,6.304,107.96,198.28298403534,4.593176,6,P-GPS,
5100,2022-08-30 19:59:10,33.0316081312945,-117.16962943546,4.92126,,,198.61106803534,5.249344,0,0.086521328228,1.83056436304,13,5,12.579,198.61106803534,4.92126,0,0.229711621524,0,0,-3.35541,172.6, -1.3, -0.2,0,0,1024,1024,1684,1024,0,0,100,0,169.5,0,94,4.204,4.187,4.195,0,0,0,6.304,107.96,198.61106803534,4.92126,6,P-GPS,
5200,2022-08-30 19:59:11,33.0316082542363,-117.169629348432,5.577428,,,199.26723603534,5.905512,0,0.036519358124,1.8827264382,12,5,12.579,199.26723603534,5.577428,0,0.229711621524,0,0,-4.250186,172.7, -0.3, 0.8,0,0,1024,1024,1684,1024,0,0,100,0,169.5,0,94,4.204,4.187,4.195,0,0,0,6.304,107.96,199.26723603534,5.577428,6,P-GPS,
5300,2022-08-30 19:59:11,33.0316082001749,-117.169629271574,6.233596,,,199.92340403534,6.56168,0,0.059687009784,1.91341213472,12,5,12.579,199.92340403534,6.233596,0,0.229711621524,0,0,-5.368656,173, 0.1, 1.6,0,0,1024,1024,1684,1024,0,0,100,0,169.5,0,94,4.204,4.187,4.195,0,0,0,6.304,107.96,199.92340403534,6.233596,6,P-GPS,
5400,2022-08-30 19:59:11,33.0316081008595,-117.169628969266,7.217848,,,200.90765603534,7.217848,0,0.145799873432,2.0127297232,12,5,12.579,200.90765603534,7.217848,0,0.229711621524,0,0,-6.487126,173.3, 0, 1.4,0,0,1024,1024,1684,1024,0,0,100,0,169.5,0,94,4.204,4.187,4.195,0,0,0,6.304,107.96,200.90765603534,7.217848,6,P-GPS,
5500,2022-08-30 19:59:11,33.0316080667075,-117.169628921119,8.2021,,,201.89190803534,8.530184,0,0.16508858796,2.03201778156,14,5,12.579,201.89190803534,8.2021,0,0.229711621524,0,0,-7.381902,173.6, -0.5, 1,0,0,1024,1024,1684,1024,0,0,100,0,169.5,0,94,4.204,4.187,4.195,0,0,0,6.304,107.96,201.89190803534,8.2021,6,P-GPS,
5600,2022-08-30 19:59:11,33.0316078288453,-117.169628584524,9.514436,,,203.20424403534,9.514436,0,0.299736558148,2.16667329768,14,5,12.579,203.20424403534,9.514436,0,0.299736558148,0,0,-8.276678,173.5, -0.2, 1.1,0,0,1024,1024,1684,1024,0,0,100,0,169.5,0,94,4.204,4.187,4.195,0,0,0,6.304,107.96,203.20424403534,9.514436,6,P-GPS,
5700,2022-08-30 19:59:11,33.0316077826563,-117.169628519885,10.498688,,,204.18849603534,10.498688,0,0.325713921184,2.1926509888,14,5,12.579,204.18849603534,10.498688,0,0.325713921184,0,0,-8.724066,173.4, 0, 1.1,0,0,1024,1024,1684,1024,0,0,100,0,169.5,0,94,4.204,4.187,4.195,0,0,0,6.304,107.96,204.18849603534,10.498688,6,P-GPS,
5800,2022-08-30 19:59:11,33.0316079713497,-117.169629296597,11.811024,,,205.50083203534,11.811024,0,0.140171264328,2.44000663976,14,5,12.579,205.50083203534,11.811024,0,0.325713921184,0,0,-8.94776,173.6, -0.1, 1.2,0,0,1024,1024,1684,1024,0,0,100,0,169.5,0,94,4.204,4.187,4.195,0,0,0,6.304,107.96,205.50083203534,11.811024,6,P-GPS,
5900,2022-08-30 19:59:11,33.0316079555778,-117.16962931673,13.12336,,,206.81316803534,13.12336,0,0.145496067648,2.44843511772,14,5,12.579,206.81316803534,13.12336,0,0.325713921184,0,0,-8.94776,173.8, 0.3, 1.3,0,0,1024,1024,1684,1024,0,0,100,0,169.5,0,94,4.204,4.187,4.195,0,0,0,6.304,107.96,206.81316803534,13.12336,6,P-GPS,
6000,2022-08-30 19:59:11,33.0316082252881,-117.169630024628,14.435696,,,208.12550403534,14.107612,0,0.21516732972,2.68627633268,14,5,12.425,208.12550403534,14.435696,0,0.325713921184,0,0,-8.94776,173.8, 0.2, 1.1,0,0,1024,1024,1684,1024,0,0,100,0,169.5,0,94,4.148,4.133,4.149,0,0,0,8.639,107.96,208.12550403534,14.435696,6,P-GPS,
6100,2022-08-30 19:59:11,33.0316082677205,-117.169630135465,16.076116,,,209.76592403534,15.419948,0,0.245907488184,2.72354667508,14,5,12.425,209.76592403534,16.076116,0,0.325713921184,0,0,-8.94776,173.7, -0.2, 0.8,0,0,1024,1024,1684,1024,0,0,100,0,169.5,0,94,4.148,4.133,4.149,0,0,0,8.639,107.96,209.76592403534,16.076116,6,P-GPS,
6200,2022-08-30 19:59:12,33.0316083417185,-117.169630226392,17.388452,,,211.07826003534,16.4042,0,0.271735901084,2.76230651884,14,5,12.425,211.07826003534,17.388452,0,0.325713921184,0,0,-8.94776,173.5, -0.8, 0,0,0,1024,1024,1684,1024,0,0,100,0,169.5,0,94,4.148,4.133,4.149,0,0,0,8.639,107.96,211.07826003534,17.388452,6,P-GPS,
6300,2022-08-30 19:59:12,33.0316084151393,-117.169630345426,18.700788,,,212.39059603534,17.716536,0,0.308916676552,2.80750993236,14,5,12.425,212.39059603534,18.700788,0,0.325713921184,0,0,-8.94776,173.3, -1.2, 0,0,0,1024,1024,1684,1024,0,0,100,0,169.5,0,94,4.148,4.133,4.149,0,0,0,8.639,107.96,212.39059603534,18.700788,6,P-GPS,
6400,2022-08-30 19:59:12,33.0316086210868,-117.169630366935,20.013124,,,213.70293203534,18.700788,0,0.32943570608,2.88293644396,14,5,12.425,213.70293203534,20.013124,0,0.32943570608,0,0,-8.94776,173.1, -1.5, -0.1,0,0,1024,1024,1684,1024,0,0,100,0,169.5,0,94,4.148,4.133,4.149,0,0,0,8.639,107.96,213.70293203534,20.013124,6,P-GPS,
6500,2022-08-30 19:59:12,33.0316087170666,-117.169630438406,21.32546,,,215.01526803534,20.013124,0,0.36168636328,2.92421925368,14,5,12.425,215.01526803534,21.32546,0,0.36168636328,0,0,-8.724066,173, -1.7, 0.1,0,0,1024,1024,1684,1024,0,0,100,0,169.5,0,94,4.148,4.133,4.149,0,0,0,8.639,107.96,215.01526803534,21.32546,6,P-GPS,
6600,2022-08-30 19:59:12,33.0316087868077,-117.169630622566,22.637796,,,216.32760403534,20.997376,0,0.42343177208,2.98603027928,14,5,12.425,216.32760403534,22.637796,0,0.42343177208,0,0,-8.724066,173.1, -1.9, 1.1,0,0,1024,1024,1684,1024,0,0,100,0,169.5,0,94,4.148,4.133,4.149,0,0,0,8.639,107.96,216.32760403534,22.637796,6,P-GPS,
6700,2022-08-30 19:59:12,33.031608874255,-117.169630663427,23.950132,,,217.63994003534,21.981628,0,0.44762468624,3.02029537224,14,5,12.425,217.63994003534,23.950132,0,0.44762468624,0,0,-8.724066,173.3, -1.4, 1.6,0,0,1024,1024,1684,1024,0,0,100,0,169.5,0,94,4.148,4.133,4.149,0,0,0,8.639,107.96,217.63994003534,23.950132,6,P-GPS,
6800,2022-08-30 19:59:12,33.0316085322436,-117.169630166994,25.262468,,,218.95227603534,23.293964,0,0.261741806276,3.21683737328,14,5,12.425,218.95227603534,25.262468,0,0.44762468624,0,0,-8.724066,173.5, -1.5, 1.9,0,0,1024,1024,1684,1024,0,0,100,0,169.5,0,94,4.148,4.133,4.149,0,0,0,8.639,107.96,218.95227603534,25.262468,6,P-GPS,
6900,2022-08-30 19:59:12,33.0316085837813,-117.169630165748,26.574804,,,220.26461203534,24.278216,0,0.266675205384,3.235646429,14,5,12.499,220.26461203534,26.574804,0,0.44762468624,0,0,-8.724066,173.7, -1.6, 1.9,0,0,1024,1024,1684,1024,0,0,100,0,169.5,0,94,4.171,4.155,4.164,0,0,0,8.613,107.96,220.26461203534,26.574804,6,P-GPS,
7000,2022-08-30 19:59:12,33.0316086020978,-117.169629732166,27.88714,,,221.57694803534,25.590552,0,0.150740818472,3.368438428,14,5,12.499,221.57694803534,27.88714,0,0.44762468624,0,0,-8.94776,173.9, -1.5, 1.8,0,0,1024,1024,1684,1024,0,0,100,0,169.5,-0.4,94,4.171,4.155,4.164,0,0,0,8.613,107.96,221.57694803534,27.88714,6,P-GPS,
7100,2022-08-30 19:59:13,33.0316086512103,-117.169629710504,29.199476,,,222.88928403534,26.902888,0,0.157273955164,3.3875329168,14,5,12.499,222.88928403534,29.199476,0,0.44762468624,0,0,-8.94776,173.9, -2.3, 1.7,0,0,1024,1024,1684,1024,0,0,100,0,169.5,-1.2,94,4.171,4.155,4.164,0,0,0,8.613,107.96,222.88928403534,29.199476,6,P-GPS,
7200,2022-08-30 19:59:13,33.0316085297909,-117.169629473305,30.511812,,,224.20162003534,28.215224,0,0.076321852836,3.4725394812,14,5,12.499,224.20162003534,30.511812,0,0.44762468624,0,0,-8.94776,173.9, -2.3, 1.8,0,0,1024,1024,1684,1024,0,0,100,0,169.5,-2.3,94,4.171,4.155,4.164,0,0,0,8.613,107.96,224.20162003534,30.511812,6,P-GPS,
7300,2022-08-30 19:59:13,33.0316085374989,-117.169629443423,31.824148,,,225.51395603534,29.199476,0,0.074306760908,3.482119534,14,5,12.499,225.51395603534,31.824148,0,0.44762468624,0,0,-8.94776,174, -2.1, 1.8,0,0,1024,1024,1684,1024,0,0,100,0,169.5,-3.7,94,4.171,4.155,4.164,0,0,0,8.613,107.96,225.51395603534,31.824148,6,P-GPS,
7400,2022-08-30 19:59:13,33.0316084112248,-117.169629590527,33.136484,,,226.82629203534,30.183728,0,0.0799786771,3.5465224232,14,5,12.499,226.82629203534,33.136484,0,0.44762468624,0,0,-8.94776,173.7, -0.8, 1.3,0,0,1024,1024,1684,1024,0,0,100,0,169.5,-5.1,94,4.171,4.155,4.164,0,0,0,8.613,107.96,226.82629203534,33.136484,6,P-GPS,
7500,2022-08-30 19:59:13,33.0316083944914,-117.169629593393,34.44882,,,228.13862803534,30.183728,0,0.079466209892,3.5526904024,14,5,12.499,228.13862803534,34.44882,0,0.44762468624,0,0,-8.94776,173.3, -1.2, 0.7,0,0,1024,1024,1684,1024,0,0,100,0,169.5,-6.6,94,4.171,4.155,4.164,0,0,0,8.613,107.96,228.13862803534,34.44882,6,P-GPS,
7600,2022-08-30 19:59:13,33.0316084754805,-117.169629348899,35.761156,,,229.45096403534,30.183728,0,0.044459647092,3.6331037908,14,5,12.499,229.45096403534,35.761156,0,0.44762468624,0,0,-8.94776,173.1, -1.8, 1.3,0,0,1024,1024,1684,1024,0,0,100,0,169.5,-8,94,4.171,4.155,4.164,0,0,0,8.613,107.96,229.45096403534,35.761156,6,P-GPS,
7700,2022-08-30 19:59:13,33.0316084755527,-117.169629306428,37.073492,,,230.76330003534,30.183728,0,0.04541174686,3.6460959172,14,5,12.499,230.76330003534,37.073492,0,0.44762468624,0,0,-8.94776,172.9, -2, 1,0,0,1024,1024,1684,1024,0,0,100,0,169.5,-9.5,94,4.171,4.155,4.164,0,0,0,8.613,107.96,230.76330003534,37.073492,6,P-GPS,
7800,2022-08-30 19:59:13,33.0316084707202,-117.169629344022,38.385828,,,232.07563603534,30.183728,0,0.042638780892,3.6577100908,14,5,12.499,232.07563603534,38.385828,0,0.44762468624,0,0,-8.94776,172.9, -1.9, 1.7,0,0,1024,1024,1684,1024,0,0,100,0,169.5,-11,94,4.171,4.155,4.164,0,0,0,8.613,107.96,232.07563603534,38.385828,6,P-GPS,
7900,2022-08-30 19:59:13,33.0316084631597,-117.169629274167,39.698164,,,233.38797203534,30.183728,0,0.044387796696,3.6792652096,14,5,12.499,233.38797203534,39.698164,0,0.44762468624,0,0,-8.94776,172.9, -1.9, 2.4,0,0,1024,1024,1684,1024,0,0,100,0,169.5,-12.4,94,4.171,4.155,4.164,0,0,0,8.613,107.96,233.38797203534,39.698164,6,P-GPS,
8000,2022-08-30 19:59:13,33.0316084744246,-117.169629097653,41.0105,,,234.70030803534,30.183728,0,0.085689307204,3.7333990696,14,5,12.49,234.70030803534,41.0105,0,0.44762468624,0,0,-8.724066,172.9, -2.2, 2,0,0,1024,1024,1684,1024,0,0,100,0,169.5,-13.9,93,4.172,4.157,4.165,0,0,0,7.747,107.96,234.70030803534,41.0105,6,P-GPS,
8100,2022-08-30 19:59:13,33.0316084513733,-117.169629008802,42.322836,,,236.01264403534,30.183728,0,0.106822181896,3.7618439524,14,5,12.49,236.01264403534,42.322836,0,0.44762468624,0,0,-8.724066,172.9, -2.3, 1.9,0,0,1024,1024,1684,1024,0,0,100,0,169.5,-15.3,93,4.172,4.157,4.165,0,0,0,7.747,107.96,236.01264403534,42.322836,6,P-GPS,
8200,2022-08-30 19:59:14,33.0316084062343,-117.169628906213,43.635172,,,237.32498003534,30.183728,0,0.133485568576,3.7973098328,14,5,12.49,237.32498003534,43.635172,0,0.44762468624,0,0,-8.724066,172.9, -1.9, 2,0,0,1024,1024,1684,1024,0,0,100,0,169.5,-16.8,93,4.172,4.157,4.165,0,0,0,7.747,107.96,237.32498003534,43.635172,6,P-GPS,
8300,2022-08-30 19:59:14,33.0316083431116,-117.169628795422,44.947508,,,238.63731603534,30.183728,0,0.166051842584,3.838254716,14,5,12.49,238.63731603534,44.947508,0,0.44762468624,0,0,-8.94776,172.9, -1.4, 2.6,0,0,1024,1024,1684,1024,0,0,100,0,169.5,-18.3,93,4.172,4.157,4.165,0,0,0,7.747,107.96,238.63731603534,44.947508,6,P-GPS,
8400,2022-08-30 19:59:14,33.0316082848016,-117.169628778524,46.259844,,,239.94965203534,30.183728,0,0.173022643332,3.8601707272,14,5,12.49,239.94965203534,46.259844,0,0.44762468624,0,0,-8.94776,173, -0.7, 3.2,0,0,1024,1024,1684,1024,0,0,100,0,169.5,-19.7,93,4.172,4.157,4.165,0,0,0,7.747,107.96,239.94965203534,46.259844,6,P-GPS,
8500,2022-08-30 19:59:14,33.0316082005615,-117.169628697231,47.57218,,,241.26198803534,30.183728,0,0.2038713976,3.8997048492,14,5,12.49,241.26198803534,47.57218,0,0.44762468624,0,0,-8.94776,172.8, -0.2, 2.5,0,0,1024,1024,1684,1024,0,0,100,0,169.5,-21.2,93,4.172,4.157,4.165,0,0,0,7.747,107.96,241.26198803534,47.57218,6,P-GPS,
8600,2022-08-30 19:59:14,33.031608049649,-117.16962857508,48.884516,,,242.57432403534,30.183728,0,0.258463919032,3.9662402844,14,5,12.49,242.57432403534,48.884516,0,0.44762468624,0,0,-8.94776,172.8, -0.4, 1.9,0,0,1024,1024,1684,1024,0,0,100,0,169.5,-22.7,93,4.172,4.157,4.165,0,0,0,7.747,107.96,242.57432403534,48.884516,6,P-GPS,
8700,2022-08-30 19:59:14,33.0316079705417,-117.169628475811,50.196852,,,243.88666003534,30.183728,0,0.29856628252,4.0081366112,14,5,12.49,243.88666003534,50.196852,0,0.44762468624,0,0,-8.94776,173, -0.5, 2.4,0,0,1024,1024,1684,1024,0,0,100,0,169.5,-24.1,93,4.172,4.157,4.165,0,0,0,7.747,107.96,243.88666003534,50.196852,6,P-GPS,
8800,2022-08-30 19:59:14,33.0316079654839,-117.169628372298,51.509188,,,245.19899603534,30.183728,0,0.32766897374,4.039862334,14,5,12.49,245.19899603534,51.509188,0,0.44762468624,0,0,-8.94776,173, -0.4, 2.9,0,0,1024,1024,1684,1024,0,0,100,0,169.5,-25.6,93,4.172,4.157,4.165,0,0,0,7.747,107.96,245.19899603534,51.509188,6,P-GPS,
8900,2022-08-30 19:59:14,33.0316079046426,-117.169628261451,52.821524,,,246.51133203534,30.183728,0,0.3678805892,4.080380708,14,5,12.484,246.51133203534,52.821524,0,0.44762468624,0,0,-8.724066,173, -0.8, 3.6,0,0,1024,1024,1684,1024,0,0,100,0,169.5,-27.1,93,4.172,4.159,4.17,0,0,0,7.477,108.14,246.51133203534,52.821524,6,P-GPS,
9000,2022-08-30 19:59:14,33.0316077883804,-117.169628285705,54.13386,,,247.82366803534,30.183728,0,0.38237534032,4.1234253288,14,5,12.484,247.82366803534,54.13386,0,0.44762468624,0,0,-8.724066,172.9, -0.9, 2.7,0,0,1024,1024,1684,1024,0,0,100,0,169.5,-28.5,93,4.172,4.159,4.17,0,0,0,7.477,108.14,247.82366803534,54.13386,6,P-GPS,
9100,2022-08-30 19:59:14,33.031607722486,-117.16962818855,55.446196,,,249.13600403534,30.183728,0,0.4203904334,4.1616471148,14,5,12.484,249.13600403534,55.446196,0,0.44762468624,0,0,-8.724066,172.9, -0.8, 3,0,0,1024,1024,1684,1024,0,0,100,0,169.5,-30,93,4.172,4.159,4.17,0,0,0,7.477,108.14,249.13600403534,55.446196,6,P-GPS,
9200,2022-08-30 19:59:15,33.0316077369205,-117.169628045953,56.758532,,,250.44834003534,30.183728,0,0.45486878096,4.2056103708,14,5,12.484,250.44834003534,56.758532,0,0.45486878096,0,0,-8.724066,172.9, -0.5, 3.7,0,0,1024,1024,1684,1024,0,0,100,0,169.5,-31.5,93,4.172,4.159,4.17,0,0,0,7.477,108.14,250.44834003534,56.758532,6,P-GPS,
9300,2022-08-30 19:59:15,33.0316076697199,-117.169627929283,58.070868,,,251.76067603534,30.183728,0,0.49802495032,4.2488846504,14,5,12.484,251.76067603534,58.070868,0,0.49802495032,0,0,-8.724066,172.8, -0.3, 3.8,0,0,1024,1024,1684,1024,0,0,100,0,169.5,-32.9,93,4.172,4.159,4.17,0,0,0,7.477,108.14,251.76067603534,58.070868,6,P-GPS,
9400,2022-08-30 19:59:15,33.0316076267639,-117.169627802988,59.383204,,,253.07301203534,30.183728,0,0.53934056844,4.2905841268,14,5,12.484,253.07301203534,59.383204,0,0.53934056844,0,0,-8.724066,172.8, -0.6, 3.7,0,0,1024,1024,1684,1024,0,0,100,0,169.5,-34.4,93,4.172,4.159,4.17,0,0,0,7.477,108.14,253.07301203534,59.383204,6,P-GPS,
9500,2022-08-30 19:59:15,33.0316075281357,-117.169627667173,60.69554,,,254.38534803534,30.183728,0,0.59331038644,4.3455381968,14,5,12.484,254.38534803534,60.69554,0,0.59331038644,0,0,-8.724066,172.6, -0.7, 4.6,0,0,1024,1024,1684,1024,0,0,100,0,169.5,-35.8,93,4.172,4.159,4.17,0,0,0,7.477,108.14,254.38534803534,60.69554,6,P-GPS,
9600,2022-08-30 19:59:15,33.0316074226224,-117.169627697047,62.007876,,,255.69768403534,30.183728,0.223694,0.6061679984,4.3851051272,14,5,12.484,255.69768403534,62.007876,0.223694,0.6061679984,-0.223694,0,-8.724066,172.7, 0.6, 4.7,0,0,1024,1024,1684,1024,0,0,100,0,169.5,-37.3,93,4.172,4.159,4.17,0,0,0,7.477,108.14,255.69768403534,62.007876,6,P-GPS,
9700,2022-08-30 19:59:15,33.03160727015,-117.169627569852,62.992128,,,256.68193603534,30.183728,0.223694,0.67000986396,4.4529857068,14,5,12.484,256.68193603534,62.992128,0.223694,0.67000986396,-0.223694,0,-8.724066,172.7, 1.8, 4.4,0,0,1024,1024,1684,1024,0,0,100,0,169.5,-38.8,93,4.172,4.159,4.17,0,0,0,7.477,108.14,256.68193603534,62.992128,6,P-GPS,
9800,2022-08-30 19:59:15,33.0316069785002,-117.169627471894,64.304464,,,257.99427203534,30.183728,0.223694,0.76006564112,4.5635500148,14,5,12.484,257.99427203534,64.304464,0.223694,0.76006564112,-0.223694,0,-8.724066,172.6, 2.3, 5.2,0,0,1024,1024,1684,1024,0,0,100,0,169.5,-40.2,93,4.172,4.159,4.17,0,0,0,7.477,108.14,257.99427203534,64.304464,6,P-GPS,
9900,2022-08-30 19:59:15,33.0316067665141,-117.169627383697,65.6168,,,259.30660803534,30.183728,0.223694,0.83236879304,4.6454397812,14,5,12.484,259.30660803534,65.6168,0.223694,0.83236879304,-0.223694,0,-8.724066,172.7, 3.5, 5.6,0,0,1024,1024,1684,1024,0,0,100,0,169.5,-41.7,93,4.172,4.159,4.17,0,0,0,7.477,108.14,259.30660803534,65.6168,6,P-GPS,
10000,2022-08-30 19:59:15,33.0316065863813,-117.169627261797,66.929136,,,260.61894403534,30.183728,0.223694,0.90512798172,4.7210303348,14,5,12.487,260.61894403534,66.929136,0.223694,0.90512798172,-0.223694,0,-8.500372,172.9, 3.8, 5.5,0,0,1024,1024,1684,1024,0,0,100,0,169.5,-43.2,93,4.158,4.143,4.155,0,0,0,7.348,108.14,260.61894403534,66.929136,6,P-GPS,
10100,2022-08-30 19:59:16,33.0316063724207,-117.169627304851,68.241472,,,261.93128003534,30.183728,0.223694,0.95366800952,4.800197004,14,5,12.487,261.93128003534,68.241472,0.223694,0.95366800952,-0.223694,0,-8.724066,172.9, 4.3, 4,0,0,1024,1024,1684,1024,0,0,100,0,169.5,-44.6,93,4.158,4.143,4.155,0,0,0,7.348,108.14,261.93128003534,68.241472,6,P-GPS,
10200,2022-08-30 19:59:16,33.0316060563425,-117.169627501946,69.553808,,,263.24361603534,30.183728,0.3131716,1.00904530788,4.9303151184,14,5,12.487,263.24361603534,69.553808,0.3131716,1.00904530788,-0.223694,-0.223694,-8.724066,172.8, 4.7, 1.6,0,0,1024,1024,1684,1024,0,0,100,0,169.5,-46.1,93,4.158,4.143,4.155,0,0,0,7.348,108.14,263.24361603534,69.553808,6,P-GPS,
10300,2022-08-30 19:59:16,33.0316058908901,-117.169627633115,70.866144,,,264.55595203534,30.183728,0.3131716,1.03901906212,5.002788874,14,5,12.487,264.55595203534,70.866144,0.3131716,1.03901906212,-0.223694,-0.223694,-8.724066,172.8, 3.6, 0.6,0,0,1024,1024,1684,1024,0,0,100,0,169.5,-47.5,93,4.158,4.143,4.155,0,0,0,7.348,108.14,264.55595203534,70.866144,6,P-GPS,
10400,2022-08-30 19:59:16,33.0316058227466,-117.16962782056,72.17848,,,265.86828803534,30.183728,0.3131716,1.03360895696,5.065288876,14,5,12.487,265.86828803534,72.17848,0.3131716,1.03901906212,0,-0.223694,-8.94776,172.8, 3, 1.2,0,0,1024,1024,1684,1024,0,0,100,0,169.5,-49,93,4.158,4.143,4.155,0,0,0,7.348,108.14,265.86828803534,72.17848,6,P-GPS,
10500,2022-08-30 19:59:16,33.0316057181362,-117.169627938627,73.490816,,,267.18062403534,30.183728,0.223694,1.05265095232,5.1178151244,14,5,12.487,267.18062403534,73.490816,0.3131716,1.05265095232,0,-0.223694,-8.94776,172.9, 2.5, 0,0,0,1024,1024,1684,1024,0,0,100,0,169.5,-50.5,93,4.158,4.143,4.155,0,0,0,7.348,108.14,267.18062403534,73.490816,6,P-GPS,
10600,2022-08-30 19:59:16,33.0316056468562,-117.169628099653,74.803152,,,268.49296003534,30.183728,0,1.0578412412,5.1735237876,14,5,12.487,268.49296003534,74.803152,0.3131716,1.0578412412,0,0,-9.171454,172.8, 2.4, 0.6,0,0,1024,1024,1684,1024,0,0,100,0,169.5,-51.9,93,4.158,4.143,4.155,0,0,0,7.348,108.14,268.49296003534,74.803152,6,P-GPS,
10700,2022-08-30 19:59:16,33.031605528154,-117.169628046397,76.115488,,,269.80529603534,30.183728,0,1.10411092772,5.2197836316,14,5,12.487,269.80529603534,76.115488,0.3131716,1.10411092772,0,0,-9.171454,172.9, 4.2, 3.1,0,0,1024,1024,1684,1024,0,0,100,0,169.5,-53.4,93,4.158,4.143,4.155,0,0,0,7.348,108.14,269.80529603534,76.115488,6,P-GPS,
10800,2022-08-30 19:59:16,33.0316055887899,-117.169627951601,77.427824,,,271.11763203534,30.183728,0.223694,1.0943897988,5.2562665724,14,5,12.487,271.11763203534,77.427824,0.3131716,1.10411092772,0,0.223694,-8.94776,173, 4.1, 4.6,0,0,1024,1024,1684,1024,0,0,100,0,169.5,-54.9,93,4.158,4.143,4.155,0,0,0,7.348,108.14,271.11763203534,77.427824,6,P-GPS,
10900,2022-08-30 19:59:16,33.0316055247373,-117.169627783477,78.74016,,,272.42996803534,30.183728,0.223694,1.13650922272,5.3127626372,14,5,12.487,272.42996803534,78.74016,0.3131716,1.13650922272,0,0.223694,-8.94776,172.9, 4, 6.8,0,0,1024,1024,1684,1024,0,0,100,0,169.5,-56.3,93,4.158,4.143,4.155,0,0,0,7.348,108.14,272.42996803534,78.74016,6,P-GPS,
11000,2022-08-30 19:59:16,33.03160545067,-117.169627754191,80.052496,,,273.74230403534,30.183728,0.223694,1.16480646772,5.3412403284,14,5,12.419,273.74230403534,80.052496,0.3131716,1.16480646772,0,0.223694,-8.724066,173, 4.5, 7.8,0,0,1024,1024,1684,1024,0,0,100,0,169.5,-57.8,93,4.165,4.152,4.159,0,0,0,8.546,108.14,273.74230403534,80.052496,6,P-GPS,
11100,2022-08-30 19:59:16,33.0316054196833,-117.1696276237,81.364832,,,275.05464003534,30.183728,0.223694,1.1921096182,5.382710146,14,5,12.419,275.05464003534,81.364832,0.3131716,1.1921096182,0,0.223694,-8.500372,173.1, 4.1, 7.3,0,0,1024,1024,1684,1024,0,0,100,0,169.5,-59.3,93,4.165,4.152,4.159,0,0,0,8.546,108.14,275.05464003534,81.364832,6,P-GPS,
11200,2022-08-30 19:59:17,33.0316054102644,-117.169627527555,82.677168,,,276.36697603534,30.183728,0.223694,1.20838586544,5.4123361312,14,5,12.419,276.36697603534,82.677168,0.3131716,1.20838586544,0,0.223694,-8.500372,173.2, 3.3, 6.6,0,0,1024,1024,1684,1024,0,0,100,0,169.5,-60.7,93,4.165,4.152,4.159,0,0,0,8.546,108.14,276.36697603534,82.677168,6,P-GPS,
11300,2022-08-30 19:59:17,33.0316054258932,-117.169627464541,83.989504,,,277.67931203534,30.183728,0,1.21231303092,5.432414872,14,5,12.419,277.67931203534,83.989504,0.3131716,1.21231303092,0,0,-8.724066,173.2, 2.7, 6.3,0,0,1024,1024,1684,1024,0,0,100,0,169.5,-62.2,93,4.165,4.152,4.159,0,0,0,8.546,108.14,277.67931203534,83.989504,6,P-GPS,
11400,2022-08-30 19:59:17,33.0316053386364,-117.16962741638,85.30184,,,278.99164803534,30.183728,0,1.24733271708,5.4674870516,14,5,12.419,278.99164803534,85.30184,0.3131716,1.24733271708,0,0,-8.724066,173.2, 2.3, 6.7,0,0,1024,1024,1684,1024,0,0,100,0,169.5,-63.6,93,4.165,4.152,4.159,0,0,0,8.546,108.14,278.99164803534,85.30184,6,P-GPS,
11500,2022-08-30 19:59:17,33.0316053667132,-117.169627403938,86.614176,,,280.30398403534,30.183728,0,1.24011814992,5.4784122488,14,5,12.419,280.30398403534,86.614176,0.3131716,1.24733271708,0,0,-8.724066,173.1, 1.8, 6.6,0,0,1024,1024,1684,1024,0,0,100,0,169.5,-65.1,93,4.165,4.152,4.159,0,0,0,8.546,108.14,280.30398403534,86.614176,6,P-GPS,
11600,2022-08-30 19:59:17,33.0316053410639,-117.169627322927,87.926512,,,281.61632003534,30.183728,0,1.2602854734,5.504921436,14,5,12.419,281.61632003534,87.926512,0.3131716,1.2602854734,0,0,-8.724066,173.1, 1.6, 6.2,0,0,1024,1024,1684,1024,0,0,100,0,169.5,-66.6,93,4.165,4.152,4.159,0,0,0,8.546,108.14,281.61632003534,87.926512,6,P-GPS,
11700,2022-08-30 19:59:17,33.031605359524,-117.169627359729,89.238848,,,282.92865603534,30.183728,0,1.24892064364,5.518044796,14,5,12.419,282.92865603534,89.238848,0.3131716,1.2602854734,0,0,-8.94776,173.1, 1.7, 5.8,0,0,1024,1024,1684,1024,0,0,100,0,169.5,-68,93,4.165,4.152,4.159,0,0,0,8.546,108.14,282.92865603534,89.238848,6,P-GPS,
11800,2022-08-30 19:59:17,33.0316055270003,-117.169627309498,90.551184,,,284.24099203534,30.183728,0,1.20368442172,5.581036924,14,5,12.419,284.24099203534,90.551184,0.3131716,1.2602854734,0,0,-8.724066,173.1, 1.6, 5.8,0,0,1024,1024,1684,1024,0,0,100,0,169.5,-69.5,93,4.165,4.152,4.159,0,0,0,8.546,108.14,284.24099203534,90.551184,6,P-GPS,
11900,2022-08-30 19:59:17,33.0316055526383,-117.169627359346,91.535436,,,285.22524403534,30.183728,0,1.18783796452,5.598917502,14,5,12.419,285.22524403534,91.535436,0.3131716,1.2602854734,0,0,-8.724066,173.1, 1.5, 5.8,0,0,1024,1024,1684,1024,0,0,100,0,169.5,-71,93,4.165,4.152,4.159,0,0,0,8.546,108.14,285.22524403534,91.535436,6,P-GPS,
12000,2022-08-30 19:59:17,33.0316056278942,-117.169627483059,92.847772,,,286.53758003534,30.183728,0,1.1450787768,5.645669472,14,5,12.375,286.53758003534,92.847772,0.3131716,1.2602854734,0,0,-8.724066,173.1, 1.5, 5.8,0,0,1024,1024,1684,1024,0,0,100,0,169.5,-72.4,93,4.136,4.117,4.131,0,0,0,8.667,108.32,286.53758003534,92.847772,6,P-GPS,
12100,2022-08-30 19:59:17,33.0316056489958,-117.169627556188,94.160108,,,287.84991603534,30.183728,0,1.12741801508,5.6693243284,14,5,12.375,287.84991603534,94.160108,0.3131716,1.2602854734,0,0,-8.724066,173.1, 1.4, 5.8,0,0,1024,1024,1684,1024,0,0,100,0,169.5,-73.9,93,4.136,4.117,4.131,0,0,0,8.667,108.32,287.84991603534,94.160108,6,P-GPS,
12200,2022-08-30 19:59:18,33.0316058788814,-117.169627525025,95.472444,,,289.16225203534,30.183728,0,1.05973428588,5.7537403416,14,5,12.375,289.16225203534,95.472444,0.3131716,1.2602854734,0,0,-8.724066,173.1, 1.3, 5.6,0,0,1024,1024,1684,1024,0,0,100,0,169.5,-75.4,93,4.136,4.117,4.131,0,0,0,8.667,108.32,289.16225203534,95.472444,6,P-GPS,
12300,2022-08-30 19:59:18,33.0316059142799,-117.169627597826,96.78478,,,290.47458803534,30.183728,0,1.03714570248,5.7794949356,14,5,12.375,290.47458803534,96.78478,0.3131716,1.2602854734,0,0,-8.724066,173.1, 1.4, 5.7,0,0,1024,1024,1684,1024,0,0,100,0,169.5,-76.8,93,4.136,4.117,4.131,0,0,0,8.667,108.32,290.47458803534,96.78478,6,P-GPS,
12400,2022-08-30 19:59:18,33.0316059609578,-117.169627674993,98.097116,,,291.78692403534,30.183728,0,1.0104823158,5.8085959864,14,5,12.375,291.78692403534,98.097116,0.3131716,1.2602854734,0,0,-8.724066,173.1, 1.5, 5.9,0,0,1024,1024,1684,1024,0,0,100,0,169.5,-78.3,93,4.136,4.117,4.131,0,0,0,8.667,108.32,291.78692403534,98.097116,6,P-GPS,
12500,2022-08-30 19:59:18,33.0316059876244,-117.169627756047,99.409452,,,293.09926003534,30.183728,0,0.9897310028,5.8352364072,14,5,12.375,293.09926003534,99.409452,0.3131716,1.2602854734,0,0,-8.724066,173.1, 1.6, 5.9,0,0,1024,1024,1684,1024,0,0,100,0,169.5,-79.8,93,4.136,4.117,4.131,0,0,0,8.667,108.32,293.09926003534,99.409452,6,P-GPS,
12600,2022-08-30 19:59:18,33.0316062104912,-117.169628113801,100.393704,,,294.08351203534,30.183728,0,0.86708664192,5.9715553092,14,5,12.375,294.08351203534,100.393704,0.3131716,1.2602854734,0,0,-8.724066,173.2, 1.5, 6,0,0,1024,1024,1684,1024,0,0,100,0,169.5,-81.2,93,4.136,4.117,4.131,0,0,0,8.667,108.32,294.08351203534,100.393704,6,P-GPS,
12700,2022-08-30 19:59:18,33.031606258931,-117.169628234055,101.70604,,,295.39584803534,30.183728,0,0.83564963304,6.0123689588,14,5,12.375,295.39584803534,101.70604,0.3131716,1.2602854734,0,0,-8.724066,173.2, 1.5, 5.9,0,0,1024,1024,1684,1024,0,0,100,0,169.5,-82.7,93,4.136,4.117,4.131,0,0,0,8.667,108.32,295.39584803534,101.70604,6,P-GPS,
12800,2022-08-30 19:59:18,33.0316063092781,-117.169628381579,103.018376,,,296.70818403534,30.183728,0,0.80132548496,6.0610894328,14,5,12.375,296.70818403534,103.018376,0.3131716,1.2602854734,0,0,-8.724066,173.1, 1.4, 5.9,0,0,1024,1024,1684,1024,0,0,100,0,169.5,-84.2,93,4.136,4.117,4.131,0,0,0,8.667,108.32,296.70818403534,103.018376,6,P-GPS,
12900,2022-08-30 19:59:18,33.0316063583916,-117.169628517584,104.330712,,,298.02052003534,30.183728,0,0.7701279774,6.1063978332,14,5,12.375,298.02052003534,104.330712,0.3131716,1.2602854734,0,0,-8.724066,173.1, 1.5, 6,0,0,1024,1024,1684,1024,0,0,100,0,169.5,-85.6,93,4.136,4.117,4.131,0,0,0,8.667,108.32,298.02052003534,104.330712,6,P-GPS,
13000,2022-08-30 19:59:18,33.0316064276863,-117.169628636734,105.643048,,,299.33285603534,30.183728,0,0.73481629648,6.15075479,14,5,12.372,299.33285603534,105.643048,0.3131716,1.2602854734,0,0,-8.724066,173.1, 1.6, 5.7,0,0,1024,1024,1684,1024,0,0,100,0,169.5,-87,93,4.133,4.11,4.125,0,0,0,9.387,108.14,299.33285603534,105.643048,6,P-GPS,
13100,2022-08-30 19:59:18,33.0316064843923,-117.16962877938,106.955384,,,300.64519203534,30.183728,0,0.70319556056,6.1990487548,14,5,12.372,300.64519203534,106.955384,0.3131716,1.2602854734,0,0,-8.724066,173.1, 1.4, 5.6,0,0,1024,1024,1684,1024,0,0,100,0,169.5,-88,93,4.133,4.11,4.125,0,0,0,9.387,108.14,300.64519203534,106.955384,6,P-GPS,
13200,2022-08-30 19:59:19,33.0316067031871,-117.16962900655,108.26772,,,301.95752803534,30.183728,0,0.61076445524,6.3048558448,14,5,12.372,301.95752803534,108.26772,0.3131716,1.2602854734,0,0,-8.724066,173.1, 1.4, 5.5,0,0,1024,1024,1684,1024,0,0,100,0,169.5,-88.5,93,4.133,4.11,4.125,0,0,0,9.387,108.14,301.95752803534,108.26772,6,P-GPS,
13300,2022-08-30 19:59:19,33.031606776805,-117.169629148019,109.251972,,,302.94178003534,30.183728,0,0.57835303688,6.35580729,14,5,12.372,302.94178003534,109.251972,0.3131716,1.2602854734,0,0,-8.724066,173.1, 1.4, 5.6,0,0,1024,1024,1684,1024,0,0,100,0,169.5,-89,93,4.133,4.11,4.125,0,0,0,9.387,108.14,302.94178003534,109.251972,6,P-GPS,
13400,2022-08-30 19:59:19,33.031606804846,-117.169629469708,110.564308,,,304.25411603534,30.183728,0,0.56662403388,6.454724616,14,5,12.372,304.25411603534,110.564308,0.3131716,1.2602854734,0,0,-8.724066,173.1, 1.6, 5.6,0,0,1024,1024,1684,1024,0,0,100,0,169.5,-89.6,93,4.133,4.11,4.125,0,0,0,9.387,108.14,304.25411603534,110.564308,6,P-GPS,
13500,2022-08-30 19:59:19,33.0316068778679,-117.169629620503,111.876644,,,305.56645203534,30.183728,0,0.54543308832,6.5080054576,14,5,12.372,305.56645203534,111.876644,0.3131716,1.2602854734,0,0,-8.724066,173.1, 1.5, 5.4,0,0,1024,1024,1684,1024,0,0,100,0,169.5,-89.9,93,4.133,4.11,4.125,0,0,0,9.387,108.14,305.56645203534,111.876644,6,P-GPS,
13600,2022-08-30 19:59:19,33.0316068999335,-117.169629724665,113.18898,,,306.87878803534,30.183728,0,0.54351379692,6.540846666,14,5,12.372,306.87878803534,113.18898,0.3131716,1.2602854734,0,0,-8.724066,173.1, 1.5, 5.4,0,0,1024,1024,1684,1024,0,0,100,0,169.5,-90,93,4.133,4.11,4.125,0,0,0,9.387,108.14,306.87878803534,113.18898,6,P-GPS,
13700,2022-08-30 19:59:19,33.0316069776571,-117.169629856119,114.501316,,,308.19112403534,30.183728,0,0.52654529244,6.590059266,14,5,12.372,308.19112403534,114.501316,0.3131716,1.2602854734,0,0,-8.724066,173.1, 1.5, 5.4,0,0,1024,1024,1684,1024,0,0,100,0,169.5,-90,93,4.133,4.11,4.125,0,0,0,9.387,108.14,308.19112403534,114.501316,6,P-GPS,
13800,2022-08-30 19:59:19,33.0316071691568,-117.169630127393,115.485568,,,309.17537603534,30.183728,0,0.49511812608,6.6985238364,14,5,12.372,309.17537603534,115.485568,0.3131716,1.2602854734,0,0,-8.724066,173.1, 1.2, 5.4,0,0,1024,1024,1684,1024,0,0,100,0,169.5,-89.9,93,4.133,4.11,4.125,0,0,0,9.387,108.14,309.17537603534,115.485568,6,P-GPS,
13900,2022-08-30 19:59:19,33.0316072632013,-117.169630255069,116.797904,,,310.48771203534,30.183728,0,0.48686353264,6.7505251504,14,5,12.358,310.48771203534,116.797904,0.3131716,1.2602854734,0,0,-8.724066,173.1, 1.3, 5.5,0,0,1024,1024,1684,1024,0,0,100,0,169.5,-90,93,4.127,4.106,4.12,0,0,0,9.538,108.14,310.48771203534,116.797904,6,P-GPS,
14000,2022-08-30 19:59:19,33.0316072660733,-117.169630354364,118.11024,,,311.80004803534,30.183728,0,0.50414699776,6.7809057288,14,5,12.358,311.80004803534,118.11024,0.3131716,1.2602854734,0,0,-8.724066,173.1, 1.2, 5.5,0,0,1024,1024,1684,1024,0,0,100,0,169.5,-90,93,4.127,4.106,4.12,0,0,0,9.538,108.14,311.80004803534,118.11024,6,P-GPS,
14100,2022-08-30 19:59:19,33.0316073529581,-117.169630467196,119.422576,,,313.11238403534,30.183728,0,0.50264437304,6.827756124,14,5,12.358,313.11238403534,119.422576,0.3131716,1.2602854734,0,0,-8.724066,173.1, 1.2, 5.4,0,0,1024,1024,1684,1024,0,0,100,0,169.5,-90,93,4.127,4.106,4.12,0,0,0,9.538,108.14,313.11238403534,119.422576,6,P-GPS,
14200,2022-08-30 19:59:20,33.0316074978163,-117.169630761593,120.734912,,,314.42472003534,30.183728,0,0.53586287804,6.9321852612,14,5,12.358,314.42472003534,120.734912,0.3131716,1.2602854734,0,0,-8.724066,173, 1.1, 5.5,0,0,1024,1024,1684,1024,0,0,100,0,169.5,-89.9,93,4.127,4.106,4.12,0,0,0,9.538,108.14,314.42472003534,120.734912,6,P-GPS,
14300,2022-08-30 19:59:20,33.031607582492,-117.169630867546,121.719164,,,315.40897203534,30.183728,0,0.54596130356,6.9769687272,14,5,12.358,315.40897203534,121.719164,0.3131716,1.2602854734,0,0,-8.724066,173, 1.1, 5.5,0,0,1024,1024,1684,1024,0,0,100,0,169.5,-90,93,4.127,4.106,4.12,0,0,0,9.538,108.14,315.40897203534,121.719164,6,P-GPS,
14400,2022-08-30 19:59:20,33.031607524152,-117.169630838542,123.0315,,,316.72130803534,30.183728,0,0.54980644804,7.0000330324,14,5,12.358,316.72130803534,123.0315,0.3131716,1.2602854734,0,0,-8.724066,173, 1.5, 5.3,0,0,1024,1024,1684,1024,0,0,100,0,169.5,-90,93,4.127,4.106,4.12,0,0,0,9.538,108.14,316.72130803534,123.0315,6,P-GPS,
14500,2022-08-30 19:59:20,33.031607583473,-117.169630913968,124.343836,,,318.03364403534,30.183728,0,0.55799542468,7.03166033,14,5,12.358,318.03364403534,124.343836,0.3131716,1.2602854734,0,0,-8.724066,173.1, 1.4, 5.4,0,0,1024,1024,1684,1024,0,0,100,0,169.5,-90,93,4.127,4.106,4.12,0,0,0,9.538,108.14,318.03364403534,124.343836,6,P-GPS,
14600,2022-08-30 19:59:20,33.0316075379866,-117.169631085376,125.656172,,,319.34598003534,30.183728,0,0.61176839228,7.0866472084,14,5,12.358,319.34598003534,125.656172,0.3131716,1.2602854734,0,0,-8.724066,173.1, 1.5, 5.5,0,0,1024,1024,1684,1024,0,0,100,0,169.5,-90,93,4.127,4.106,4.12,0,0,0,9.538,108.14,319.34598003534,125.656172,6,P-GPS,
14700,2022-08-30 19:59:20,33.031607586806,-117.169631152435,126.640424,,,320.33023203534,30.183728,0,0.62154529548,7.1138125636,14,5,12.358,320.33023203534,126.640424,0.3131716,1.2602854734,0,0,-8.724066,173.1, 1.4, 5.5,0,0,1024,1024,1684,1024,0,0,100,0,169.5,-90,93,4.127,4.106,4.12,0,0,0,9.538,108.14,320.33023203534,126.640424,6,P-GPS,
14800,2022-08-30 19:59:20,33.0316077525079,-117.169631212233,127.95276,,,321.64256803534,30.183728,0,0.6138123556,7.1769687336,14,5,12.358,321.64256803534,127.95276,0.3131716,1.2602854734,0,0,-8.724066,173.1, 1.4, 5.5,0,0,1024,1024,1684,1024,0,0,100,0,169.5,-90,93,4.127,4.106,4.12,0,0,0,9.538,108.14,321.64256803534,127.95276,6,P-GPS,
14900,2022-08-30 19:59:20,33.0316078163477,-117.169631277577,129.265096,,,322.95490403534,30.183728,0,0.6248195738,7.207677396,14,5,12.346,322.95490403534,129.265096,0.3131716,1.2602854734,0,0,-8.724066,173.1, 1.2, 5.4,0,0,1024,1024,1684,1024,0,0,100,0,169.5,-89.9,93,4.123,4.101,4.116,0,0,0,9.67,108.32,322.95490403534,129.265096,6,P-GPS,
15000,2022-08-30 19:59:20,33.0316078523461,-117.169631398392,130.577432,,,324.26724003534,30.183728,0,0.65622705512,7.246883434,14,5,12.346,324.26724003534,130.577432,0.3131716,1.2602854734,0,0,-8.724066,173, 0.9, 5.4,0,0,1024,1024,1684,1024,0,0,100,0,169.5,-90,93,4.123,4.101,4.116,0,0,0,9.67,108.32,324.26724003534,130.577432,6,P-GPS,
15100,2022-08-30 19:59:21,33.0316079067168,-117.169631456838,131.561684,,,325.25149203534,30.183728,0,0.66829398464,7.2735894716,14,5,12.346,325.25149203534,131.561684,0.3131716,1.2602854734,0,0,-8.724066,173, 1, 5.3,0,0,1024,1024,1684,1024,0,0,100,0,169.5,-89.9,93,4.123,4.101,4.116,0,0,0,9.67,108.32,325.25149203534,131.561684,6,P-GPS,
15200,2022-08-30 19:59:21,33.0316077668454,-117.16963159322,132.87402,,,326.56382803534,30.183728,0,0.722276926,7.3395015472,14,5,12.346,326.56382803534,132.87402,0.3131716,1.2602854734,0,0,-8.724066,173, 1.3, 5.5,0,0,1024,1024,1684,1024,0,0,100,0,169.5,-90,93,4.123,4.101,4.116,0,0,0,9.67,108.32,326.56382803534,132.87402,6,P-GPS,
15300,2022-08-30 19:59:21,33.031607785474,-117.169631634324,134.186356,,,327.87616403534,30.183728,0,0.73233926228,7.3538060096,14,5,12.346,327.87616403534,134.186356,0.3131716,1.2602854734,0,0,-8.724066,173, 1.5, 5.6,0,0,1024,1024,1684,1024,0,0,100,0,169.5,-90,93,4.123,4.101,4.116,0,0,0,9.67,108.32,327.87616403534,134.186356,6,P-GPS,
15400,2022-08-30 19:59:21,33.0316078058525,-117.169631581544,135.498692,,,329.18850003534,30.183728,0,0.71475724072,7.3715881624,14,5,12.346,329.18850003534,135.498692,0.3131716,1.2602854734,0,0,-8.724066,173.1, 1.7, 5.6,0,0,1024,1024,1684,1024,0,0,100,0,169.5,-90,93,4.123,4.101,4.116,0,0,0,9.67,108.32,329.18850003534,135.498692,6,P-GPS,
15500,2022-08-30 19:59:21,33.0316078191899,-117.169631599844,136.482944,,,330.17275203534,30.183728,0,0.71879595476,7.3790028608,14,5,12.346,330.17275203534,136.482944,0.3131716,1.2602854734,0,0,-8.724066,173.1, 1.7, 5.7,0,0,1024,1024,1684,1024,0,0,100,0,169.5,-90,93,4.123,4.101,4.116,0,0,0,9.67,108.32,330.17275203534,136.482944,6,P-GPS,
15600,2022-08-30 19:59:21,33.0316077176738,-117.16963159673,137.79528,,,331.48508803534,30.183728,0,0.72881892096,7.4160435444,14,5,12.346,331.48508803534,137.79528,0.3131716,1.2602854734,0,0,-8.724066,173.1, 1.6, 5.6,0,0,1024,1024,1684,1024,0,0,100,0,169.5,-90,93,4.123,4.101,4.116,0,0,0,9.67,108.32,331.48508803534,137.79528,6,P-GPS,
15700,2022-08-30 19:59:21,33.0316077240427,-117.169631613995,139.107616,,,332.79742403534,30.183728,0,0.73309385548,7.4218178228,14,5,12.346,332.79742403534,139.107616,0.3131716,1.2602854734,0,0,-8.724066,173.1, 1.6, 5.6,0,0,1024,1024,1684,1024,0,0,100,0,169.5,-90,93,4.123,4.101,4.116,0,0,0,9.67,108.32,332.79742403534,139.107616,6,P-GPS,
15800,2022-08-30 19:59:21,33.0316076986612,-117.1696316891,140.419952,,,334.10976003534,30.183728,0,0.75781170404,7.4465881648,14,5,12.346,334.10976003534,140.419952,0.3131716,1.2602854734,0,0,-8.724066,173.2, 1.8, 5.7,0,0,1024,1024,1684,1024,0,0,100,0,169.5,-90,93,4.123,4.101,4.116,0,0,0,9.67,108.32,334.10976003534,140.419952,6,P-GPS,
15900,2022-08-30 19:59:21,33.0316077097314,-117.169631707065,141.732288,,,335.42209603534,30.183728,0,0.76177495876,7.453412312,14,5,12.328,335.42209603534,141.732288,0.3131716,1.2602854734,0,0,-8.724066,173.1, 1.7, 5.9,0,0,1024,1024,1684,1024,0,0,100,0,169.5,-90,93,4.117,4.093,4.109,0,0,0,9.892,108.5,335.42209603534,141.732288,6,P-GPS,
16000,2022-08-30 19:59:21,33.0316077220426,-117.169631654181,143.044624,,,336.73443203534,30.183728,0,0.74500002384,7.4701774044,14,5,12.328,336.73443203534,143.044624,0.3131716,1.2602854734,0,0,-8.724066,173.1, 1.4, 6.1,0,0,1024,1024,1684,1024,0,0,100,0,169.5,-90,93,4.117,4.093,4.109,0,0,0,9.892,108.5,336.73443203534,143.044624,6,P-GPS,
16100,2022-08-30 19:59:21,33.0316077419002,-117.169631670846,144.028876,,,337.71868403534,30.183728,0,0.7476542234,7.4790356724,14,5,12.328,337.71868403534,144.028876,0.3131716,1.2602854734,0,0,-8.724066,173, 1.2, 6.1,0,0,1024,1024,1684,1024,0,0,100,0,169.5,-90,93,4.117,4.093,4.109,0,0,0,9.892,108.5,337.71868403534,144.028876,6,P-GPS,
16200,2022-08-30 19:59:22,33.0316077424936,-117.169631637758,145.341212,,,339.03102003534,30.183728,0,0.73793637532,7.489173468,14,5,12.328,339.03102003534,145.341212,0.3131716,1.2602854734,0,0,-8.724066,173, 1.4, 6,0,0,1024,1024,1684,1024,0,0,100,0,169.5,-90,93,4.117,4.093,4.109,0,0,0,9.892,108.5,339.03102003534,145.341212,6,P-GPS,
16300,2022-08-30 19:59:22,33.0316077404482,-117.169631650339,146.653548,,,340.34335603534,30.183728,0,0.7418307324,7.4930776676,14,5,12.328,340.34335603534,146.653548,0.3131716,1.2602854734,0,0,-8.94776,173.1, 1.9, 6.2,0,0,1024,1024,1684,1024,0,0,100,0,169.5,-90,93,4.117,4.093,4.109,0,0,0,9.892,108.5,340.34335603534,146.653548,6,P-GPS,
16400,2022-08-30 19:59:22,33.0316075423814,-117.169631618344,147.965884,,,341.65569203534,30.183728,0,0.75771984052,7.5660107408,14,5,12.328,341.65569203534,147.965884,0.3131716,1.2602854734,0,0,-8.724066,173.1, 1.9, 6.5,0,0,1024,1024,1684,1024,0,0,100,0,169.5,-90,93,4.117,4.093,4.109,0,0,0,9.892,108.5,341.65569203534,147.965884,6,P-GPS,
16500,2022-08-30 19:59:22,33.0316075331263,-117.169631607219,148.950136,,,342.63994403534,30.183728,0,0.75591865936,7.5708007672,14,5,12.328,342.63994403534,148.950136,0.3131716,1.2602854734,0,0,-8.724066,173.2, 1.8, 6.8,0,0,1024,1024,1684,1024,0,0,100,0,169.5,-90,93,4.117,4.093,4.109,0,0,0,9.892,108.5,342.63994403534,148.950136,6,P-GPS,
16600,2022-08-30 19:59:22,33.0316076899627,-117.169631571779,150.262472,,,343.95228003534,30.183728,0,0.724901598,7.6290356772,14,5,12.328,343.95228003534,150.262472,0.3131716,1.2602854734,0,0,-8.724066,173, 1.4, 6.6,0,0,1024,1024,1684,1024,0,0,100,0,169.5,-89.9,93,4.117,4.093,4.109,0,0,0,9.892,108.5,343.95228003534,150.262472,6,P-GPS,
16700,2022-08-30 19:59:22,33.0316076973245,-117.169631579103,151.574808,,,345.26461603534,30.183728,0,0.72612535132,7.632546176,14,5,12.328,345.26461603534,151.574808,0.3131716,1.2602854734,0,0,-8.724066,173.1, 1.6, 6.3,0,0,1024,1024,1684,1024,0,0,100,0,169.5,-90,93,4.117,4.093,4.109,0,0,0,9.892,108.5,345.26461603534,151.574808,6,P-GPS,
16800,2022-08-30 19:59:22,33.0316075569836,-117.169631568808,152.887144,,,346.57695203534,30.183728,0,0.74168965628,7.6838585136,14,5,12.328,346.57695203534,152.887144,0.3131716,1.2602854734,0,0,-8.94776,173.1, 1.8, 6.5,0,0,1024,1024,1684,1024,0,0,100,0,169.5,-90,93,4.117,4.093,4.109,0,0,0,9.892,108.5,346.57695203534,152.887144,6,P-GPS,
16900,2022-08-30 19:59:22,33.0316075471916,-117.169631566238,154.19948,,,347.88928803534,30.183728,0,0.74237535184,7.687500246,14,5,12.308,347.88928803534,154.19948,0.3131716,1.2602854734,0,0,-8.94776,173.1, 1.9, 6.9,0,0,1024,1024,1684,1024,0,0,100,0,169.5,-90,93,4.112,4.089,4.103,0,0,0,10.185,108.5,347.88928803534,154.19948,6,P-GPS,
17000,2022-08-30 19:59:22,33.0316075585208,-117.169631441224,155.511816,,,349.20162403534,30.183728,0,0.7057250882,7.7259516908,14,5,12.308,349.20162403534,155.511816,0.3131716,1.2602854734,0,0,-8.724066,173.1, 1.8, 6.3,0,0,1024,1024,1684,1024,0,0,100,0,169.5,-90,93,4.112,4.089,4.103,0,0,0,10.185,108.5,349.20162403534,155.511816,6,P-GPS,
17100,2022-08-30 19:59:23,33.0316075525992,-117.16963143657,156.824152,,,350.51396003534,30.183728,0,0.70531826404,7.7285435544,14,5,12.308,350.51396003534,156.824152,0.3131716,1.2602854734,0,0,-8.94776,173, 2, 6.6,0,0,1024,1024,1684,1024,0,0,100,0,169.5,-90,93,4.112,4.089,4.103,0,0,0,10.185,108.5,350.51396003534,156.824152,6,P-GPS,
17200,2022-08-30 19:59:23,33.0316075593233,-117.169631453688,157.808404,,,351.49821203534,30.183728,0,0.70908138752,7.7343178328,14,5,12.308,351.49821203534,157.808404,0.3131716,1.2602854734,0,0,-8.94776,173.1, 2.1, 7.1,0,0,1024,1024,1684,1024,0,0,100,0,169.5,-90,93,4.112,4.089,4.103,0,0,0,10.185,108.5,351.49821203534,157.808404,6,P-GPS,
17300,2022-08-30 19:59:23,33.0316075573415,-117.169631457782,159.12074,,,352.81054803534,30.183728,0,0.71051839544,7.7357942108,14,5,12.308,352.81054803534,159.12074,0.3131716,1.2602854734,0,0,-8.724066,173.1, 2.1, 7,0,0,1024,1024,1684,1024,0,0,100,0,169.5,-89.9,93,4.112,4.089,4.103,0,0,0,10.185,108.5,352.81054803534,159.12074,6,P-GPS,
17400,2022-08-30 19:59:23,33.0316075789918,-117.169631331456,160.433076,,,354.12288403534,30.183728,0,0.67208335484,7.7752299076,14,5,12.308,354.12288403534,160.433076,0.3131716,1.2602854734,0,0,-8.724066,173.1, 2.1, 7,0,0,1024,1024,1684,1024,0,0,100,0,169.5,-90,93,4.112,4.089,4.103,0,0,0,10.185,108.5,354.12288403534,160.433076,6,P-GPS,
17500,2022-08-30 19:59:23,33.0316075855141,-117.169631332813,161.745412,,,355.43522003534,30.183728,0,0.67146327608,7.7776249208,14,5,12.308,355.43522003534,161.745412,0.3131716,1.2602854734,0,0,-8.724066,173.1, 2.1, 6.9,0,0,1024,1024,1684,1024,0,0,100,0,169.5,-90,93,4.112,4.089,4.103,0,0,0,10.185,108.5,355.43522003534,161.745412,6,P-GPS,
17600,2022-08-30 19:59:23,33.0316077666792,-117.16963138865,163.057748,,,356.74755603534,30.183728,0,0.66279857764,7.8458992012,14,5,12.308,356.74755603534,163.057748,0.3131716,1.2602854734,0,0,-8.724066,173.1, 2, 6.9,0,0,1024,1024,1684,1024,0,0,100,0,169.5,-90,93,4.112,4.089,4.103,0,0,0,10.185,108.5,356.74755603534,163.057748,6,P-GPS,
17700,2022-08-30 19:59:23,33.0316077951005,-117.169631417688,164.370084,,,358.05989203534,30.183728,0,0.66797246232,7.8595474956,14,5,12.308,358.05989203534,164.370084,0.3131716,1.2602854734,0,0,-8.724066,173.1, 2.1, 6.9,0,0,1024,1024,1684,1024,0,0,100,0,169.5,-90,93,4.112,4.089,4.103,0,0,0,10.185,108.5,358.05989203534,164.370084,6,P-GPS,
