time(millisecond),datetime(utc),latitude,longitude,height_above_takeoff(feet),height_above_ground_at_drone_location(feet),ground_elevation_at_drone_location(feet),altitude_above_seaLevel(feet),height_sonar(feet),speed(mph),distance(feet),mileage(feet),satellites,gpslevel,voltage(v),max_altitude(feet),max_ascent(feet),max_speed(mph),max_distance(feet), xSpeed(mph), ySpeed(mph), zSpeed(mph), compass_heading(degrees), pitch(degrees), roll(degrees),isPhoto,isVideo,rc_elevator,rc_aileron,rc_throttle,rc_rudder,rc_elevator(percent),rc_aileron(percent),rc_throttle(percent),rc_rudder(percent),gimbal_heading(degrees),gimbal_pitch(degrees),gimbal_roll(degrees),battery_percent,voltageCell1,voltageCell2,voltageCell3,voltageCell4,voltageCell5,voltageCell6,current(A),battery_temperature(f),altitude(feet),ascent(feet),flycStateRaw,flycState,message
0,2025-02-16 08:06:49,31.182122750451,121.471941871083,0,Available with any HD 360 subscription,Available with any HD 360 subscription,37.800766301488,0,0,0,0,32,5,0,37.800766301488,0,0,0,0,0,0,235.4, -1.2, -2.6,0,0,1024,1024,1024,1024,0,0,0,0,256,0,0,47,3.723,3.72,3.721,3.718,0,0,0,77.18,37.800766301488,0,6,P-GPS,"SD卡为低速卡，可能影响功能正常使用，请更换SD卡 (Code: 10028). 未起飞，视觉系统及避障关闭 (Code: 180059). Remote ID 功能正常 (Code: 1B080003)"
100,2025-02-16 08:06:49,31.1821227498661,121.471941867937,0,,,37.800766301488,0,0,0.0010050525256,0.0010050525256,32,5,0,37.800766301488,0,0,0.0010050525256,0,0,0,235.4, -1.2, -2.6,0,0,1024,1024,1024,1024,0,0,0,0,256,0,0,47,3.723,3.72,3.721,3.718,0,0,0,77.18,37.800766301488,0,41,Motors_Started,
200,2025-02-16 08:06:49,31.1821227496564,121.471941868799,0,,,37.800766301488,0.328084,0,0.00076949149444,0.00128504925372,32,5,0,37.800766301488,0,0,0.0010050525256,0,0,0,235.4, -1.2, -2.6,0,0,1024,1024,1024,1024,0,0,0,0,256,0,0,47,3.723,3.72,3.721,3.718,0,0,0,77.18,37.800766301488,0,41,Motors_Started,
300,2025-02-16 08:06:49,31.1821227523154,121.471941866289,0,,,37.800766301488,0.328084,0,0.00164360569564,0.00253200795504,32,5,0,37.800766301488,0,0,0.00164360569564,0,0,0,235.4, -1.2, -2.6,0,0,1024,1024,1024,1024,0,0,0,0,256,0,0,47,3.723,3.72,3.721,3.718,0,0,0,77.18,37.800766301488,0,41,Motors_Started,
400,2025-02-16 08:06:49,31.1821227527078,121.471941868395,0,,,37.800766301488,0.328084,0,0.00117545607436,0.00320478684796,32,5,0,37.800766301488,0,0,0.00164360569564,0,0,0,235.4, -1.2, -2.6,0,0,1024,1024,1024,1024,0,0,0,0,256,0,0,47,3.723,3.72,3.721,3.718,0,0,0,77.18,37.800766301488,0,41,Motors_Started,
500,2025-02-16 08:06:50,31.1821227525831,121.471941870375,0,,,37.800766301488,0.328084,0,0.0008086614432,0.0038244095712,32,5,0,37.800766301488,0,0,0.00164360569564,0,0,0,235.4, -1.2, -2.6,0,0,1024,1024,1024,1024,0,0,0,0,256,0,0,47,3.723,3.72,3.721,3.718,0,0,0,77.18,37.800766301488,0,41,Motors_Started,
600,2025-02-16 08:06:50,31.1821227528229,121.471941869102,0,,,37.800766301488,0.328084,0,0.00106357943036,0.004231299348,32,5,0,37.800766301488,0,0,0.00164360569564,0,0,0,235.4, -1.3, -2.6,0,0,1024,1024,1024,1024,0,0,0,0,256,0,0,47,3.723,3.72,3.721,3.718,0,0,0,77.18,37.800766301488,0,41,Motors_Started,
700,2025-02-16 08:06:50,31.1821227500553,121.471941865739,0,,,37.800766301488,0.328084,0,0.0016742290562,0.0056877954576,32,5,0,37.800766301488,0,0,0.0016742290562,0,0,0,235.3, -1.1, -2.5,0,0,1024,1024,1024,1024,0,0,0,0,256,0,0,47,3.723,3.72,3.721,3.718,0,0,0,77.18,37.800766301488,0,41,Motors_Started,"Setting new Return-To-Home altitude to 100m (328 ft). Data Recorder File Index is 41. Setting new Maximum Flight Altitude to 120m (394 ft)"
800,2025-02-16 08:06:50,31.1821227526024,121.471941868751,0,,,37.800766301488,0.328084,0,0.00107059386628,0.0070095802768,32,5,0,37.800766301488,0,0,0.0016742290562,0,0,0,235.4, -1.2, -2.6,0,0,1024,1024,1024,1024,0,0,0,0,256,0,0,47,3.723,3.72,3.721,3.718,0,0,0,77.18,37.800766301488,0,41,Motors_Started,
900,2025-02-16 08:06:50,31.1821227679023,121.471941758704,0,,,37.800766301488,0.328084,0,0.035650919776,0.041810040708,32,5,0,37.800766301488,0,0,0.035650919776,0,0,0,235.4, -1.2, -2.5,0,0,1024,1024,1024,1024,0,0,0,0,255.9,0,0,47,3.723,3.72,3.721,3.718,0,0,0,77.18,37.800766301488,0,41,Motors_Started,
1000,2025-02-16 08:06:50,31.1821227760447,121.471941751738,0,,,37.800766301488,0.328084,0,0.038404528788,0.045491471272,32,5,15.005,37.800766301488,0,0,0.038404528788,0,0,0,235.4, -1.2, -2.5,0,0,1024,1024,1024,1024,0,0,0,0,255.9,0,0,47,3.723,3.72,3.721,3.718,0,0,0.919,77.18,37.800766301488,0,41,Motors_Started,
1100,2025-02-16 08:06:50,31.1821227645843,121.471941756677,0,,,37.800766301488,0.328084,0,0.0360810379,0.049947836244,32,5,15.005,37.800766301488,0,0,0.038404528788,0,0,0,235.4, -1.2, -2.5,0,0,1024,1024,1024,1024,0,0,0,0,255.9,0,0,47,3.723,3.72,3.721,3.718,0,0,0.919,77.18,37.800766301488,0,41,Motors_Started,
1200,2025-02-16 08:06:50,31.1821227708139,121.471941751907,0,,,37.800766301488,0.328084,0,0.037934056332,0.052665027932,32,5,15.005,37.800766301488,0,0,0.038404528788,0,0,0,235.4, -1.2, -2.5,0,0,1024,1024,1024,1024,0,0,0,0,255.9,0,0,47,3.723,3.72,3.721,3.718,0,0,0.919,77.18,37.800766301488,0,41,Motors_Started,
1300,2025-02-16 08:06:50,31.1821227678486,121.471941774102,0,,,37.800766301488,0.328084,0,0.0309296597824,0.05967683918,32,5,15.005,37.800766301488,0,0,0.038404528788,0,0,0,235.4, -1.2, -2.6,0,0,1024,1024,1024,1024,0,0,0,0,255.9,0,0,47,3.723,3.72,3.721,3.718,0,0,0.919,77.18,37.800766301488,0,41,Motors_Started,
1400,2025-02-16 08:06:50,31.1821227774736,121.471941777659,0,,,37.800766301488,0.328084,0,0.0307827437672,0.063359910164,32,5,15.005,37.800766301488,0,0,0.038404528788,0,0,0,235.4, -1.2, -2.5,0,0,1024,1024,1024,1024,0,0,0,0,255.9,0,0,47,3.723,3.72,3.721,3.718,0,0,0.919,77.18,37.800766301488,0,41,Motors_Started,
1500,2025-02-16 08:06:51,31.1821227415377,121.471941807617,0,,,37.800766301488,0.328084,0,0.0200753615348,0.079464241388,32,5,15.005,37.800766301488,0,0,0.038404528788,0,0,0,235.4, -1.1, -2.6,0,0,1024,1024,1024,1024,0,0,0,0,255.9,0,0,47,3.723,3.72,3.721,3.718,0,0,0.919,77.18,37.800766301488,0,41,Motors_Started,
1600,2025-02-16 08:06:51,31.182122731175,121.471941826473,0,,,37.800766301488,0.328084,0,0.0155996724152,0.086459648436,32,5,15.005,37.800766301488,0,0,0.038404528788,0,0,0,235.4, -1.1, -2.6,0,0,1024,1024,1024,1024,0,0,0,0,255.9,0,0,47,3.723,3.72,3.721,3.718,0,0,0.919,77.18,37.800766301488,0,41,Motors_Started,
1700,2025-02-16 08:06:51,31.1821227463943,121.471941696593,0,,,37.800766301488,0.328084,0,0.05448490988,0.127378613,32,5,15.005,37.800766301488,0,0,0.05448490988,0,0,0,235.4, -1.1, -2.6,0,0,1024,1024,1024,1024,0,0,0,0,255.9,0,0,47,3.723,3.72,3.721,3.718,0,0,0.919,77.18,37.800766301488,0,11,AutoTakeoff,
1800,2025-02-16 08:06:51,31.1821227476877,121.471941714099,0,,,37.800766301488,0.328084,0,0.049011156424,0.132863193228,32,5,15.005,37.800766301488,0,0,0.05448490988,0,0,0,235.4, -1.1, -2.6,0,0,1024,1024,1024,1024,0,0,0,0,255.9,0,0,47,3.723,3.72,3.721,3.718,0,0,0.919,77.18,37.800766301488,0,11,AutoTakeoff,
1900,2025-02-16 08:06:51,31.182122752239,121.471941688555,0,,,37.800766301488,0.328084,0,0.056977692112,0.141007550444,32,5,15.005,37.800766301488,0,0,0.056977692112,0,0,0,235.4, -1.2, -2.5,0,0,1024,1024,1024,1024,0,0,0,0,255.9,0,0,47,3.723,3.72,3.721,3.718,0,0,0.919,77.18,37.800766301488,0,11,AutoTakeoff,
2000,2025-02-16 08:06:51,31.1821227523035,121.471941703379,0,,,37.800766301488,0.328084,0,0.052351051544,0.14563484718,32,5,15.004,37.800766301488,0,0,0.056977692112,0,0,0,235.3, -1.2, -2.5,0,0,1024,1024,1024,1024,0,0,0,0,255.9,0,0,47,3.724,3.725,3.728,3.727,0,0,0.908,77.18,37.800766301488,0,11,AutoTakeoff,
2100,2025-02-16 08:06:51,31.1821227558022,121.47194169354,0,,,37.800766301488,0.328084,0,0.055452429596,0.148960962772,32,5,15.004,37.800766301488,0,0,0.056977692112,0,0,0,235.4, -1.2, -2.3,0,0,1024,1024,1024,1024,0,0,0,0,255.9,0,0,47,3.724,3.725,3.728,3.727,0,0,0.908,77.18,37.800766301488,0,11,AutoTakeoff,
2200,2025-02-16 08:06:51,31.182122749036,121.471941701521,0,,,37.800766301488,0.328084,0,0.052929463636,0.152468180732,32,5,15.004,37.800766301488,0,0,0.056977692112,0,0,-0.223694,235.3, -1.7, -1.2,0,0,1024,1024,1024,1024,0,0,0,0,255.9,0,0,47,3.724,3.725,3.728,3.727,0,0,0.908,77.18,37.800766301488,0,11,AutoTakeoff,
2300,2025-02-16 08:06:51,31.1821227074424,121.471941773417,0,,,37.800766301488,0.328084,0,0.034286746504,0.179559060864,32,5,15.004,37.800766301488,0,0,0.056977692112,0,0,-0.447388,234.9, -1.5, -0.2,0,0,1024,1024,1024,1024,0,0,0,0,255.9,0,0,47,3.724,3.725,3.728,3.727,0,0,0.908,77.18,37.800766301488,0,11,AutoTakeoff,
2400,2025-02-16 08:06:51,31.1821226279495,121.471941768867,0,,,37.800766301488,0.328084,0.223694,0.054914043752,0.208596791452,32,5,15.004,37.800766301488,0,0.223694,0.056977692112,-0.223694,0,-0.671082,235, 0, 0.4,0,0,1024,1024,1024,1024,0,0,0,0,255.9,0,0,47,3.724,3.725,3.728,3.727,0,0,0.908,77.18,37.800766301488,0,11,AutoTakeoff,"SD卡为低速卡，可能影响功能正常使用，请更换SD卡 (Code: 10028). Remote ID 功能正常 (Code: 1B080003)"
2500,2025-02-16 08:06:51,31.1821223860819,121.471941778272,0.328084,,,38.128850301488,0.656168,0.223694,0.13605971564,0.296890757532,32,5,15.004,38.128850301488,0.328084,0.223694,0.13605971564,-0.223694,0,-0.894776,235.3, 0.8, 1.5,0,0,1024,1024,1024,1024,0,0,0,0,255.9,0,0,47,3.724,3.725,3.728,3.727,0,0,0.908,77.18,38.128850301488,0.328084,11,AutoTakeoff,
2600,2025-02-16 08:06:52,31.1821222766117,121.471941774956,0.328084,,,38.128850301488,0.656168,0,0.175464572544,0.3368438428,32,5,15.004,38.128850301488,0.328084,0.223694,0.175464572544,0,0,-1.11847,235.2, 1.6, 1.4,0,0,1024,1024,1024,1024,0,0,0,0,255.9,0,0,47,3.724,3.725,3.728,3.727,0,0,0.908,77.18,38.128850301488,0.328084,11,AutoTakeoff,
2700,2025-02-16 08:06:52,31.1821223666748,121.471941767515,0.656168,,,38.456934301488,0.984252,0,0.14370407284,0.36978675724,32,5,15.004,38.456934301488,0.656168,0.223694,0.175464572544,0,0,-1.11847,235.2, 1.2, 1.2,0,0,1024,1024,1024,1024,0,0,0,0,255.9,0,0,47,3.724,3.725,3.728,3.727,0,0,0.908,77.18,38.456934301488,0.656168,11,AutoTakeoff,
2800,2025-02-16 08:06:52,31.1821222794137,121.471941798632,0.656168,,,38.456934301488,0.984252,0,0.173339244392,0.40307087904,32,5,15.004,38.456934301488,0.656168,0.223694,0.175464572544,0,0,-1.11847,235.1, 0.8, 1.4,0,0,1024,1024,1024,1024,0,0,0,0,255.9,0,0,47,3.724,3.725,3.728,3.727,0,0,0.908,77.18,38.456934301488,0.656168,11,AutoTakeoff,
2900,2025-02-16 08:06:52,31.1821224179301,121.471942054016,0.984252,,,38.785018301488,1.312336,0.223694,0.134085634212,0.497457365,32,5,15.004,38.785018301488,0.984252,0.223694,0.175464572544,0,0.223694,-0.894776,235.1, 0.3, 1.9,0,0,1024,1024,1024,1024,0,0,0,0,255.9,0,0,47,3.724,3.725,3.728,3.727,0,0,0.908,77.18,38.785018301488,0.984252,11,AutoTakeoff,
3000,2025-02-16 08:06:52,31.1821223744603,121.471942166416,0.984252,,,38.785018301488,1.312336,0.223694,0.165276580092,0.5359580224,32,5,14.852,38.785018301488,0.984252,0.223694,0.175464572544,0,0.223694,-0.894776,235.2, -0.2, 2.3,0,0,1024,1024,1024,1024,0,0,0,0,255.9,0,0,47,3.693,3.694,3.692,3.688,0,0,4.225,77.18,38.785018301488,0.984252,11,AutoTakeoff,
3100,2025-02-16 08:06:52,31.1821224800802,121.471942439508,1.312336,,,39.113102301488,1.312336,0.223694,0.20300525584,0.62950789416,32,5,14.852,39.113102301488,1.312336,0.223694,0.20300525584,0,0.223694,-0.894776,235.1, -1.2, 2.6,0,0,1024,1024,1024,1024,0,0,0,0,255.8,0,0,47,3.693,3.694,3.692,3.688,0,0,4.225,77.18,39.113102301488,1.312336,11,AutoTakeoff,
3200,2025-02-16 08:06:52,31.1821224721852,121.471942541213,1.312336,,,39.113102301488,1.64042,0.223694,0.23250984996,0.6613845356,32,5,14.852,39.113102301488,1.312336,0.223694,0.23250984996,0,0.223694,-0.894776,235.1, -1.8, 2.7,0,0,1024,1024,1024,1024,0,0,0,0,255.8,0,0,47,3.693,3.694,3.692,3.688,0,0,4.225,77.18,39.113102301488,1.312336,11,AutoTakeoff,
3300,2025-02-16 08:06:52,31.1821226223125,121.47194265667,1.312336,,,39.113102301488,1.64042,0.223694,0.249628616912,0.72694884216,32,5,14.852,39.113102301488,1.312336,0.223694,0.249628616912,0,0.223694,-0.894776,235.2, -2, 2.8,0,0,1024,1024,1024,1024,0,0,0,0,255.8,0,0,47,3.693,3.694,3.692,3.688,0,0,4.225,77.18,39.113102301488,1.312336,11,AutoTakeoff,"返航点已刷新，请留意返航点位置 (Code: 30800)"
3400,2025-02-16 08:06:52,31.1821226156195,121.471942777649,1.64042,,,39.441186301488,1.968504,0.223694,0.28721785696,0.76479005072,32,5,14.852,39.441186301488,1.64042,0.223694,0.28721785696,0,0.223694,-0.894776,235.2, -2.1, 2.7,0,0,1024,1024,1024,1024,0,0,0,0,255.8,0,0,47,3.693,3.694,3.692,3.688,0,0,4.225,77.18,39.441186301488,1.64042,11,AutoTakeoff,
3500,2025-02-16 08:06:53,31.18212261893,121.47194286527,1.64042,,,39.441186301488,1.968504,0,0.314011821072,0.79216866052,32,5,14.852,39.441186301488,1.64042,0.223694,0.314011821072,0,0,-0.894776,235.2, -2.1, 2.8,0,0,1024,1024,1024,1024,0,0,0,0,255.8,0,0,47,3.693,3.694,3.692,3.688,0,0,4.225,77.18,39.441186301488,1.64042,11,AutoTakeoff,
3600,2025-02-16 08:06:53,31.1821226300883,121.471942974582,1.968504,,,39.769270301488,1.968504,0,0.34723098224,0.82652889784,32,5,14.852,39.769270301488,1.968504,0.223694,0.34723098224,0,0,-0.894776,235.2, -2.2, 2.7,0,0,1024,1024,1024,1024,0,0,0,0,255.8,0,0,47,3.693,3.694,3.692,3.688,0,0,4.225,77.18,39.769270301488,1.968504,11,AutoTakeoff,
3700,2025-02-16 08:06:53,31.1821227680617,121.47194304597,1.968504,,,39.769270301488,2.296588,0,0.36678478864,0.88158139304,32,5,14.852,39.769270301488,1.968504,0.223694,0.36678478864,0,0,-1.11847,235.2, -2.4, 2.6,0,0,1024,1024,1024,1024,0,0,0,0,255.8,0,0,47,3.693,3.694,3.692,3.688,0,0,4.225,77.18,39.769270301488,1.968504,11,AutoTakeoff,
3800,2025-02-16 08:06:53,31.182122805218,121.47194311969,2.296588,,,40.097354301488,2.296588,0,0.39024935632,0.90828743064,32,5,14.852,40.097354301488,2.296588,0.223694,0.39024935632,0,0,-1.11847,235.2, -2.6, 2.4,0,0,1024,1024,1024,1024,0,0,0,0,255.8,0,0,47,3.693,3.694,3.692,3.688,0,0,4.225,77.18,40.097354301488,2.296588,11,AutoTakeoff,
3900,2025-02-16 08:06:53,31.1821229744869,121.471943077475,2.296588,,,40.097354301488,2.624672,0,0.38533137716,0.97143703896,31,5,14.852,40.097354301488,2.296588,0.223694,0.39024935632,0,0,-1.11847,235.2, -2.6, 2.3,0,0,1024,1024,1024,1024,0,0,0,0,255.8,0,0,47,3.693,3.694,3.692,3.688,0,0,4.225,77.18,40.097354301488,2.296588,11,AutoTakeoff,
4000,2025-02-16 08:06:53,31.1821230018397,121.471943120355,2.624672,,,40.425438301488,2.624672,0,0.40058728316,0.98812995288,31,5,14.863,40.425438301488,2.624672,0.223694,0.40058728316,0,0,-1.11847,235.2, -2.6, 2.2,0,0,1024,1024,1024,1024,0,0,0,0,255.8,0,0,47,3.685,3.687,3.686,3.682,0,0,3.686,77.18,40.425438301488,2.624672,11,AutoTakeoff,
4100,2025-02-16 08:06:53,31.1821230907738,121.471943046445,2.624672,,,40.425438301488,2.952756,0,0.38731628536,1.02794294628,32,5,14.863,40.425438301488,2.624672,0.223694,0.40058728316,0,0,-0.894776,235.2, -2.5, 2.1,0,0,1024,1024,1024,1024,0,0,0,0,255.7,0,0,47,3.685,3.687,3.686,3.682,0,0,3.686,77.18,40.425438301488,2.624672,11,AutoTakeoff,
4200,2025-02-16 08:06:53,31.1821231380917,121.471943078315,2.952756,,,40.753522301488,2.952756,0,0.40249017036,1.04787076844,32,5,14.863,40.753522301488,2.952756,0.223694,0.40249017036,0,0,-0.894776,235.2, -2.7, 1.7,0,0,1024,1024,1024,1024,0,0,0,0,255.7,0,0,47,3.685,3.687,3.686,3.682,0,0,3.686,77.18,40.753522301488,2.952756,11,AutoTakeoff,
4300,2025-02-16 08:06:53,31.1821231874815,121.471943045229,2.952756,,,40.753522301488,3.28084,0,0.39967849048,1.06863848564,32,5,14.863,40.753522301488,2.952756,0.223694,0.40249017036,0,0,-1.11847,235.2, -2.9, 1.8,0,0,1024,1024,1024,1024,0,0,0,0,255.7,0,0,47,3.685,3.687,3.686,3.682,0,0,3.686,77.18,40.753522301488,2.952756,11,AutoTakeoff,
4400,2025-02-16 08:06:53,31.1821232162062,121.471943076694,3.28084,,,41.081606301488,3.28084,0,0.41290683736,1.08300200316,32,5,14.863,41.081606301488,3.28084,0.223694,0.41290683736,0,0,-0.894776,235.2, -3, 2.1,0,0,1024,1024,1024,1024,0,0,0,0,255.7,0,0,47,3.685,3.687,3.686,3.682,0,0,3.686,77.18,41.081606301488,3.28084,11,AutoTakeoff,
4500,2025-02-16 08:06:54,31.1821232676507,121.471943129219,3.28084,,,41.081606301488,3.608924,0,0.435695552,1.1079232638,32,5,14.863,41.081606301488,3.28084,0.223694,0.435695552,0,0,-0.894776,235.2, -3.1, 2.3,0,0,1024,1024,1024,1024,0,0,0,0,255.7,0,0,47,3.685,3.687,3.686,3.682,0,0,3.686,77.18,41.081606301488,3.28084,11,AutoTakeoff,
4600,2025-02-16 08:06:54,31.1821232912672,121.471943138388,3.608924,,,41.409690301488,3.608924,0,0.44205381992,1.11700134808,32,5,14.863,41.409690301488,3.608924,0.223694,0.44205381992,0,0,-0.894776,235.2, -3, 2.3,0,0,1024,1024,1024,1024,0,0,0,0,255.7,0,0,47,3.685,3.687,3.686,3.682,0,0,3.686,77.18,41.409690301488,3.608924,11,AutoTakeoff,
4700,2025-02-16 08:06:54,31.1821233666937,121.47194310511,3.608924,,,41.409690301488,3.608924,0,0.44600395128,1.14641735952,32,5,14.863,41.409690301488,3.608924,0.223694,0.44600395128,0,0,-0.671082,235.3, -3.3, 2.5,0,0,1024,1024,1024,1024,0,0,0,0,255.7,0,0,47,3.685,3.687,3.686,3.682,0,0,3.686,77.18,41.409690301488,3.608924,6,P-GPS,
4800,2025-02-16 08:06:54,31.1821233903801,121.471943115147,3.608924,,,41.409690301488,3.937008,0,0.45310368904,1.1556102732,32,5,14.863,41.409690301488,3.608924,0.223694,0.45310368904,0,0,-0.223694,235.3, -3.4, 2.4,0,0,1024,1024,1024,1024,0,0,0,0,255.7,0,0,47,3.685,3.687,3.686,3.682,0,0,3.686,77.18,41.409690301488,3.608924,6,P-GPS,
4900,2025-02-16 08:06:54,31.182123460879,121.471943111687,3.608924,,,41.409690301488,3.937008,0,0.46598098604,1.18135502468,32,5,14.863,41.409690301488,3.608924,0.223694,0.46598098604,0,0,0,235.4, -3.2, 2.4,0,0,1024,1024,1024,1024,0,0,0,0,255.7,0,0,47,3.685,3.687,3.686,3.682,0,0,3.686,77.18,41.409690301488,3.608924,6,P-GPS,
5000,2025-02-16 08:06:54,31.1821234878856,121.47194311373,3.608924,,,41.409690301488,3.937008,0,0.47205710172,1.19122707224,32,5,14.754,41.409690301488,3.608924,0.223694,0.47205710172,0,0,0,235.5, -3, 2.3,0,0,1024,1024,1024,1024,0,0,0,0,255.7,0,0,47,3.684,3.685,3.686,3.68,0,0,6.063,77.18,41.409690301488,3.608924,6,P-GPS,"SD卡为低速卡，可能影响功能正常使用，请更换SD卡 (Code: 10028)"
5100,2025-02-16 08:06:54,31.1821235834116,121.471943089826,3.608924,,,41.409690301488,3.937008,0,0.48690290272,1.226870118,32,5,14.754,41.409690301488,3.608924,0.223694,0.48690290272,0,0,0,235.5, -2.9, 2,0,0,1024,1024,1024,1024,0,0,0,0,255.7,0,0,47,3.684,3.685,3.686,3.68,0,0,6.063,77.18,41.409690301488,3.608924,6,P-GPS,
5200,2025-02-16 08:06:54,31.1821236110568,121.471943087903,3.608924,,,41.409690301488,3.937008,0,0.4927985722,1.2369751052,32,5,14.754,41.409690301488,3.608924,0.223694,0.4927985722,0,0,0,235.6, -2.8, 2,0,0,1024,1024,1024,1024,0,0,0,0,255.7,0,0,47,3.684,3.685,3.686,3.68,0,0,6.063,77.18,41.409690301488,3.608924,6,P-GPS,
5300,2025-02-16 08:06:54,31.1821235557782,121.471942999538,3.608924,,,41.409690301488,3.608924,0,0.4586942404,1.2711450538,32,5,14.754,41.409690301488,3.608924,0.223694,0.4927985722,0,0,0,235.7, -2.5, 2,0,0,1024,1024,1024,1024,0,0,0,0,255.7,0,0,47,3.684,3.685,3.686,3.68,0,0,6.063,77.18,41.409690301488,3.608924,6,P-GPS,
5400,2025-02-16 08:06:54,31.1821235618358,121.471943005238,3.608924,,,41.409690301488,3.937008,0,0.46147639272,1.27397969956,32,5,14.754,41.409690301488,3.608924,0.223694,0.4927985722,0,0,0,235.7, -3.1, 2.3,0,0,1024,1024,1024,1024,0,0,0,0,255.7,0,0,47,3.684,3.685,3.686,3.68,0,0,6.063,77.18,41.409690301488,3.608924,6,P-GPS,
5500,2025-02-16 08:06:55,31.1821236530977,121.471943005782,3.608924,,,41.409690301488,3.608924,0,0.48363518608,1.30727694472,32,5,14.754,41.409690301488,3.608924,0.223694,0.4927985722,0,0,0,235.7, -3.8, 2.7,0,0,1024,1024,1024,1024,0,0,0,0,255.7,0,0,47,3.684,3.685,3.686,3.68,0,0,6.063,77.18,41.409690301488,3.608924,6,P-GPS,
5600,2025-02-16 08:06:55,31.1821236728199,121.471942999529,3.608924,,,41.409690301488,3.608924,0,0.48715224656,1.31473429404,32,5,14.754,41.409690301488,3.608924,0.223694,0.4927985722,0,0,0,235.7, -4.1, 1.8,0,0,1024,1024,1024,1024,0,0,0,0,255.7,0,0,47,3.684,3.685,3.686,3.68,0,0,6.063,77.18,41.409690301488,3.608924,6,P-GPS,
5700,2025-02-16 08:06:55,31.1821237601853,121.47194296175,3.608924,,,41.409690301488,3.608924,0,0.50161418928,1.3487205156,32,5,14.754,41.409690301488,3.608924,0.223694,0.50161418928,0,0,0,235.7, -3.9, 1.5,0,0,1024,1024,1024,1024,0,0,0,0,255.7,0,0,47,3.684,3.685,3.686,3.68,0,0,6.063,77.18,41.409690301488,3.608924,6,P-GPS,
5800,2025-02-16 08:06:55,31.1821237780452,121.471942922694,3.608924,,,41.409690301488,3.608924,0,0.49830710256,1.36254269452,32,5,14.754,41.409690301488,3.608924,0.223694,0.50161418928,0,0,0,235.7, -3.9, 1.7,0,0,1024,1024,1024,1024,0,0,0,0,255.7,0,0,47,3.684,3.685,3.686,3.68,0,0,6.063,77.18,41.409690301488,3.608924,6,P-GPS,
5900,2025-02-16 08:06:55,31.1821237421469,121.47194297686,3.608924,,,41.409690301488,3.608924,0,0.50004594776,1.38393049048,32,5,14.754,41.409690301488,3.608924,0.223694,0.50161418928,0,0,0,235.6, -3.8, 1.8,0,0,1024,1024,1024,1024,0,0,0,0,255.7,0,0,47,3.684,3.685,3.686,3.68,0,0,6.063,77.18,41.409690301488,3.608924,6,P-GPS,
6000,2025-02-16 08:06:55,31.1821237317735,121.471942971467,3.608924,,,41.409690301488,3.608924,0,0.49614830984,1.38807091056,32,5,14.735,41.409690301488,3.608924,0.223694,0.50161418928,0,0,0,235.7, -3.9, 2.1,0,0,1024,1024,1024,1024,0,0,0,0,255.7,0,0,47,3.687,3.688,3.686,3.681,0,0,6.16,77.36,41.409690301488,3.608924,6,P-GPS,
6100,2025-02-16 08:06:55,31.1821238321787,121.471942962415,3.608924,,,41.409690301488,3.608924,0,0.52134844188,1.42481303772,32,5,14.735,41.409690301488,3.608924,0.223694,0.52134844188,0,0,0,235.8, -3.8, 2,0,0,1024,1024,1024,1024,0,0,0,0,255.7,0,0,47,3.687,3.688,3.686,3.681,0,0,6.16,77.36,41.409690301488,3.608924,6,P-GPS,
6200,2025-02-16 08:06:55,31.1821238290381,121.471942920588,3.608924,,,41.409690301488,3.608924,0,0.51203085628,1.43791999352,32,5,14.735,41.409690301488,3.608924,0.223694,0.52134844188,0,0,0,235.7, -3.4, 1.8,0,0,1024,1024,1024,1024,0,0,0,0,255.7,0,0,47,3.687,3.688,3.686,3.681,0,0,6.16,77.36,41.409690301488,3.608924,6,P-GPS,
6300,2025-02-16 08:06:55,31.182123817925,121.471942947108,3.608924,,,41.409690301488,3.608924,0,0.5142880742,1.44713587308,32,5,14.735,41.409690301488,3.608924,0.223694,0.52134844188,0,0,0,235.7, -3.4, 1.8,0,0,1024,1024,1024,1024,0,0,0,0,255.7,0,0,47,3.687,3.688,3.686,3.681,0,0,6.16,77.36,41.409690301488,3.608924,6,P-GPS,
6400,2025-02-16 08:06:55,31.1821238092955,121.471942921396,3.608924,,,41.409690301488,3.608924,0,0.50667980624,1.4557579206,32,5,14.735,41.409690301488,3.608924,0.223694,0.52134844188,0,0,0,235.6, -3.5, 1.8,0,0,1024,1024,1024,1024,0,0,0,0,255.7,0,0,47,3.687,3.688,3.686,3.681,0,0,6.16,77.36,41.409690301488,3.608924,6,P-GPS,
6500,2025-02-16 08:06:56,31.1821238202721,121.471942856463,3.608924,,,41.409690301488,3.608924,0,0.49694555396,1.47641737008,31,5,14.735,41.409690301488,3.608924,0.223694,0.52134844188,0,0,0,235.7, -3.6, 1.9,0,0,1024,1024,1024,1024,0,0,0,0,255.7,0,0,47,3.687,3.688,3.686,3.681,0,0,6.16,77.36,41.409690301488,3.608924,6,P-GPS,
6600,2025-02-16 08:06:56,31.1821238069828,121.471942824721,3.608924,,,41.409690301488,3.608924,0,0.48702757464,1.487450835,31,5,14.735,41.409690301488,3.608924,0.223694,0.52134844188,0,0,0,235.7, -3.5, 1.9,0,0,1024,1024,1024,1024,0,0,0,0,255.7,0,0,47,3.687,3.688,3.686,3.681,0,0,6.16,77.36,41.409690301488,3.608924,6,P-GPS,
6700,2025-02-16 08:06:56,31.1821238260716,121.471942742837,3.608924,,,41.409690301488,3.608924,0,0.47754594704,1.51394033716,31,5,14.735,41.409690301488,3.608924,0.223694,0.52134844188,0,0,0,235.7, -3.5, 1.9,0,0,1024,1024,1024,1024,0,0,0,0,255.7,0,0,47,3.687,3.688,3.686,3.681,0,0,6.16,77.36,41.409690301488,3.608924,6,P-GPS,
6800,2025-02-16 08:06:56,31.1821238342431,121.471942699542,3.608924,,,41.409690301488,3.608924,0,0.47247048756,1.52777892028,31,5,14.735,41.409690301488,3.608924,0.223694,0.52134844188,0,0,0,235.7, -3.4, 1.9,0,0,1024,1024,1024,1024,0,0,0,0,255.7,0,0,47,3.687,3.688,3.686,3.681,0,0,6.16,77.36,41.409690301488,3.608924,6,P-GPS,
6900,2025-02-16 08:06:56,31.1821238648655,121.471942515638,3.608924,,,41.409690301488,3.608924,0,0.45364830848,1.58625989328,32,5,14.735,41.409690301488,3.608924,0.223694,0.52134844188,0,0,0,235.6, -3.3, 1.5,0,0,1024,1024,1024,1024,0,0,0,0,255.7,0,0,47,3.687,3.688,3.686,3.681,0,0,6.16,77.36,41.409690301488,3.608924,6,P-GPS,
7000,2025-02-16 08:06:56,31.1821238810309,121.47194246577,3.608924,,,41.409690301488,3.608924,0,0.45233269164,1.60290687544,32,5,14.735,41.409690301488,3.608924,0.223694,0.52134844188,0,0,0,235.7, -3.2, 1.4,0,0,1024,1024,1024,1024,0,0,0,0,255.7,0,0,47,3.687,3.688,3.686,3.681,0,0,6.16,77.36,41.409690301488,3.608924,6,P-GPS,
7100,2025-02-16 08:06:56,31.1821239628161,121.471942431762,3.608924,,,41.409690301488,3.608924,0,0.47569555328,1.63457682396,32,5,14.735,41.409690301488,3.608924,0.223694,0.52134844188,0,0,0,235.7, -3.2, 1.5,0,0,1024,1024,1024,1024,0,0,0,0,255.7,0,0,47,3.687,3.688,3.686,3.681,0,0,6.16,77.36,41.409690301488,3.608924,6,P-GPS,
7200,2025-02-16 08:06:56,31.1821239835532,121.471942395455,3.608924,,,41.409690301488,3.608924,0,0.47874673448,1.64820215248,32,5,14.735,41.409690301488,3.608924,0.223694,0.52134844188,0,0,0,235.7, -3.3, 1.2,0,0,1024,1024,1024,1024,0,0,0,0,255.7,0,0,47,3.687,3.688,3.686,3.681,0,0,6.16,77.36,41.409690301488,3.608924,6,P-GPS,
7300,2025-02-16 08:06:56,31.1821240830779,121.471942323006,3.608924,,,41.409690301488,3.608924,0,0.50625657788,1.69098102524,32,5,14.735,41.409690301488,3.608924,0.223694,0.52134844188,0,0,0,235.7, -3.5, 1.1,0,0,1024,1024,1024,1024,0,0,0,0,255.7,0,0,47,3.678,3.679,3.677,3.673,0,0,5.968,77.36,41.409690301488,3.608924,6,P-GPS,
7400,2025-02-16 08:06:56,31.1821241052515,121.471942267543,3.608924,,,41.409690301488,3.608924,0,0.50955382208,1.7100886374,32,5,14.735,41.409690301488,3.608924,0.223694,0.52134844188,0,0,0,235.7, -3.4, 1.1,0,0,1024,1024,1024,1024,0,0,0,0,255.7,0,0,47,3.678,3.679,3.677,3.673,0,0,5.968,77.36,41.409690301488,3.608924,6,P-GPS,
7500,2025-02-16 08:06:57,31.1821241709454,121.471942214306,3.608924,,,41.409690301488,3.608924,0,0.52922245788,1.739255305,32,5,14.735,41.409690301488,3.608924,0.223694,0.52922245788,0,0,0,235.8, -3.4, 1,0,0,1024,1024,1024,1024,0,0,0,0,255.7,0,0,47,3.678,3.679,3.677,3.673,0,0,5.968,77.36,41.409690301488,3.608924,6,P-GPS,
7600,2025-02-16 08:06:57,31.1821241906761,121.471942148656,3.608924,,,41.409690301488,3.608924,0,0.53255907216,1.7609744658,32,5,14.735,41.409690301488,3.608924,0.223694,0.53255907216,0,0,0,235.8, -3.4, 0.9,0,0,1024,1024,1024,1024,0,0,0,0,255.7,0,0,47,3.678,3.679,3.677,3.673,0,0,5.968,77.36,41.409690301488,3.608924,6,P-GPS,
7700,2025-02-16 08:06:57,31.1821242610837,121.471942093665,3.608924,,,41.409690301488,3.608924,0,0.55551510964,1.79187013608,32,5,14.735,41.409690301488,3.608924,0.223694,0.55551510964,0,0,0,235.8, -3.1, 0.6,0,0,1024,1024,1024,1024,0,0,0,0,255.7,0,0,47,3.678,3.679,3.677,3.673,0,0,5.968,77.36,41.409690301488,3.608924,6,P-GPS,
7800,2025-02-16 08:06:57,31.1821242763116,121.471942049394,3.608924,,,41.409690301488,3.608924,0,0.55948492604,1.80676514968,32,5,14.735,41.409690301488,3.608924,0.223694,0.55948492604,0,0,0,235.7, -2.9, 0.5,0,0,1024,1024,1024,1024,0,0,0,0,255.7,0,0,47,3.678,3.679,3.677,3.673,0,0,5.968,77.36,41.409690301488,3.608924,6,P-GPS,
7900,2025-02-16 08:06:57,31.1821243578785,121.471942026242,3.608924,,,41.409690301488,3.608924,0,0.58846458576,1.83738851024,32,5,14.735,41.409690301488,3.608924,0.223694,0.58846458576,0,0,0,235.7, -2.8, 0.7,0,0,1024,1024,1024,1024,0,0,0,0,255.7,0,0,47,3.678,3.679,3.677,3.673,0,0,5.968,77.36,41.409690301488,3.608924,6,P-GPS,
8000,2025-02-16 08:06:57,31.1821243608524,121.471942004266,3.608924,,,41.409690301488,3.608924,0,0.58902232856,1.84433404852,32,5,14.735,41.409690301488,3.608924,0.223694,0.58902232856,0,0,0,235.7, -2.8, 0.8,0,0,1024,1024,1024,1024,0,0,0,0,255.7,0,0,47,3.678,3.679,3.677,3.673,0,0,5.968,77.36,41.409690301488,3.608924,6,P-GPS,
8100,2025-02-16 08:06:57,31.1821244455557,121.471941970828,3.608924,,,41.409690301488,3.608924,0,0.6192421458,1.8769521598,32,5,14.735,41.409690301488,3.608924,0.223694,0.6192421458,0,0,0,235.7, -2.9, 0.9,0,0,1024,1024,1024,1024,0,0,0,0,255.7,0,0,47,3.678,3.679,3.677,3.673,0,0,5.968,77.36,41.409690301488,3.608924,6,P-GPS,
8200,2025-02-16 08:06:57,31.1821244635092,121.471941946094,3.608924,,,41.409690301488,3.608924,0,0.62544621424,1.88707683204,32,5,14.708,41.409690301488,3.608924,0.223694,0.62544621424,0,0,0,235.7, -2.9, 0.9,0,0,1024,1024,1029,1024,0,0,1,0,255.7,0,0,47,3.677,3.677,3.677,3.671,0,0,6.309,77.36,41.409690301488,3.608924,6,P-GPS,
8300,2025-02-16 08:06:57,31.1821244461417,121.471941840851,3.608924,,,41.409690301488,3.608924,0,0.61874345812,1.92053155752,32,5,14.708,41.409690301488,3.608924,0.223694,0.62544621424,0,0,0,235.7, -3, 0.8,0,0,1024,1024,1034,1024,0,0,2,0,255.7,0,0,47,3.677,3.677,3.677,3.671,0,0,6.309,77.36,41.409690301488,3.608924,6,P-GPS,
8400,2025-02-16 08:06:57,31.182124440112,121.471941805482,3.608924,,,41.409690301488,3.608924,0,0.61681104336,1.93178811956,32,5,14.708,41.409690301488,3.608924,0.223694,0.62544621424,0,0,0,235.7, -2.9, 0.9,0,0,1024,1024,1034,1024,0,0,2,0,255.7,0,0,47,3.677,3.677,3.677,3.671,0,0,6.309,77.36,41.409690301488,3.608924,6,P-GPS,
8500,2025-02-16 08:06:58,31.1821244205361,121.471941752733,3.608924,,,41.409690301488,3.608924,0,0.6104494946,1.9497375952,32,5,14.708,41.409690301488,3.608924,0.223694,0.62544621424,0,0,0,235.7, -2.8, 1,0,0,1024,1024,1038,1024,0,0,2,0,255.7,0,0,47,3.677,3.677,3.677,3.671,0,0,6.309,77.36,41.409690301488,3.608924,6,P-GPS,
8600,2025-02-16 08:06:58,31.1821244041857,121.471941752331,3.608924,,,41.409690301488,3.608924,0,0.60450133168,1.95570216232,32,5,14.708,41.409690301488,3.608924,0.223694,0.62544621424,0,0,0,235.7, -2.9, 1.1,0,0,1024,1024,1042,1024,0,0,3,0,255.7,0,0,47,3.677,3.677,3.677,3.671,0,0,6.309,77.36,41.409690301488,3.608924,6,P-GPS,
8700,2025-02-16 08:06:58,31.182124512857,121.471941816084,3.608924,,,41.409690301488,3.608924,0,0.6432414904,2.0000656808,32,5,14.708,41.409690301488,3.608924,0.223694,0.6432414904,0,0,0,235.8, -3.2, 1.1,0,0,1024,1024,1062,1024,0,0,6,0,255.7,0,0,47,3.677,3.677,3.677,3.671,0,0,6.309,77.36,41.409690301488,3.608924,6,P-GPS,
8800,2025-02-16 08:06:58,31.1821245044189,121.471941832174,3.608924,,,41.409690301488,3.608924,0,0.64004923308,2.00595806944,32,5,14.708,41.409690301488,3.608924,0.223694,0.6432414904,0,0,0,235.7, -3.4, 1.1,0,0,1024,1024,1073,1024,0,0,7,0,255.7,0,0,47,3.677,3.677,3.677,3.671,0,0,6.309,77.36,41.409690301488,3.608924,6,P-GPS,
8900,2025-02-16 08:06:58,31.1821245205844,121.471941813727,3.608924,,,41.409690301488,3.608924,0,0.646079417,2.01419953952,32,5,14.708,41.409690301488,3.608924,0.223694,0.646079417,0,0,0,235.7, -3.4, 1.1,0,0,1024,1024,1078,1024,0,0,8,0,255.7,0,0,47,3.677,3.677,3.677,3.671,0,0,6.309,77.36,41.409690301488,3.608924,6,P-GPS,
9000,2025-02-16 08:06:58,31.1821244941176,121.471941842973,3.608924,,,41.409690301488,3.608924,0,0.636236897,2.02748694152,32,5,14.708,41.409690301488,3.608924,0.223694,0.646079417,0,0,0,235.8, -3.3, 1.2,0,0,1024,1024,1080,1024,0,0,8,0,255.7,0,0,47,3.677,3.677,3.677,3.671,0,0,6.309,77.36,41.409690301488,3.608924,6,P-GPS,
9100,2025-02-16 08:06:58,31.1821244905157,121.471941950375,3.608924,,,41.409690301488,3.937008,0,0.63534450852,2.06103681136,32,5,14.708,41.409690301488,3.608924,0.223694,0.646079417,0,0,0,235.7, -3.5, 1.3,0,0,1024,1024,1084,1024,0,0,9,0,255.7,0,0,47,3.677,3.677,3.677,3.671,0,0,6.309,77.36,41.409690301488,3.608924,6,P-GPS,
9200,2025-02-16 08:06:58,31.1821244798735,121.471941989986,3.608924,,,41.409690301488,3.608924,0,0.6320702302,2.07399612936,32,5,14.708,41.409690301488,3.608924,0.223694,0.646079417,0,0,0,235.7, -3.7, 1.4,0,0,1024,1024,1085,1024,0,0,9,0,255.7,0,0,47,3.677,3.677,3.677,3.671,0,0,6.309,77.36,41.409690301488,3.608924,6,P-GPS,
9300,2025-02-16 08:06:58,31.1821245155299,121.47194195389,3.608924,,,41.409690301488,3.937008,0,0.64450789464,2.091207416,32,5,14.714,41.409690301488,3.608924,0.223694,0.646079417,0,0,0,235.7, -3.9, 1.4,0,0,1024,1024,1087,1024,0,0,10,0,255.7,0,0,47,3.678,3.678,3.679,3.671,0,0,5.927,77.36,41.409690301488,3.608924,6,P-GPS,
9400,2025-02-16 08:06:58,31.1821244971356,121.471941970258,3.608924,,,41.409690301488,3.937008,0,0.63802823564,2.09964245564,32,5,14.714,41.409690301488,3.608924,0.223694,0.646079417,0,0,0,235.7, -3.9, 1.5,0,0,1024,1024,1088,1024,0,0,10,0,255.7,0,0,47,3.678,3.678,3.679,3.671,0,0,5.927,77.36,41.409690301488,3.608924,6,P-GPS,
9500,2025-02-16 08:06:59,31.182124606994,121.471942034264,3.608924,,,41.409690301488,3.937008,0,0.67927167528,2.14442592164,32,5,14.714,41.409690301488,3.608924,0.223694,0.67927167528,0,0,0,235.8, -3.7, 1.6,0,0,1024,1024,1087,1024,0,0,10,0,255.7,0,0,47,3.678,3.678,3.679,3.671,0,0,5.927,77.36,41.409690301488,3.608924,6,P-GPS,
9600,2025-02-16 08:06:59,31.1821245878126,121.471942058471,3.608924,,,41.409690301488,3.937008,0,0.67290684568,2.1547244784,32,5,14.714,41.409690301488,3.608924,0.223694,0.67927167528,0,0,0,235.8, -3.8, 1.6,0,0,1024,1024,1076,1024,0,0,8,0,255.7,0,0,47,3.678,3.678,3.679,3.671,0,0,5.927,77.36,41.409690301488,3.608924,6,P-GPS,
9700,2025-02-16 08:06:59,31.1821245995021,121.471942038475,3.937008,,,41.737774301488,3.937008,0,0.67664700328,2.16228353376,32,5,14.714,41.737774301488,3.937008,0.223694,0.67927167528,0,0,0,235.7, -3.8, 1.7,0,0,1024,1024,1060,1024,0,0,5,0,255.7,0,0,47,3.678,3.678,3.679,3.671,0,0,5.927,77.36,41.737774301488,3.937008,6,P-GPS,
9800,2025-02-16 08:06:59,31.1821245787058,121.471942060133,3.937008,,,41.737774301488,3.937008,0,0.66964240988,2.17244757608,32,5,14.714,41.737774301488,3.937008,0.223694,0.67927167528,0,0,0,235.7, -3.8, 1.8,0,0,1024,1024,1038,1024,0,0,2,0,255.7,0,0,47,3.678,3.678,3.679,3.671,0,0,5.927,77.36,41.737774301488,3.937008,6,P-GPS,
9900,2025-02-16 08:06:59,31.1821246025491,121.471942034588,3.937008,,,41.737774301488,3.937008,0,0.67766078284,2.18424875756,32,5,14.714,41.737774301488,3.937008,0.223694,0.67927167528,0,0,0,235.8, -3.7, 1.9,0,0,1024,1024,1028,1024,0,0,1,0,255.7,0,0,47,3.678,3.678,3.679,3.671,0,0,5.927,77.36,41.737774301488,3.937008,6,P-GPS,
10000,2025-02-16 08:06:59,31.1821245852795,121.471942052176,3.937008,,,41.737774301488,3.937008,0,0.6718176068,2.19260505704,32,5,14.714,41.737774301488,3.937008,0.223694,0.67927167528,0,0,0,235.7, -3.7, 1.8,0,0,1024,1024,1025,1024,0,0,0,0,255.7,0,0,47,3.678,3.678,3.679,3.671,0,0,5.927,77.36,41.737774301488,3.937008,6,P-GPS,
10100,2025-02-16 08:06:59,31.1821246150729,121.471942023599,3.937008,,,41.737774301488,3.937008,0,0.68196852576,2.20666673728,32,5,14.714,41.737774301488,3.937008,0.223694,0.68196852576,0,0,0,235.8, -3.6, 1.8,0,0,1024,1024,1025,1024,0,0,0,0,255.7,0,0,47,3.678,3.678,3.679,3.671,0,0,5.927,77.36,41.737774301488,3.937008,6,P-GPS,
10200,2025-02-16 08:06:59,31.1821246029524,121.471942037806,3.937008,,,41.737774301488,3.937008,0,0.67788387996,2.21292986084,32,5,14.714,41.737774301488,3.937008,0.223694,0.68196852576,0,0,0,235.8, -3.6, 2.1,0,0,1024,1024,1024,1024,0,0,0,0,255.7,0,0,47,3.678,3.678,3.679,3.671,0,0,5.927,77.36,41.737774301488,3.937008,6,P-GPS,
10300,2025-02-16 08:06:59,31.1821247034501,121.471942012933,3.937008,,,41.737774301488,3.937008,0,0.71392390736,2.25040689616,32,5,14.696,41.737774301488,3.937008,0.223694,0.71392390736,0,0,0,235.8, -3.4, 2.2,0,0,1024,1024,1024,1024,0,0,0,0,255.7,0,0,46,3.674,3.674,3.673,3.67,0,0,6.063,77.54,41.737774301488,3.937008,6,P-GPS,
10400,2025-02-16 08:06:59,31.182124673018,121.471942027852,3.937008,,,41.737774301488,3.937008,0,0.70315290964,2.26244757896,32,5,14.696,41.737774301488,3.937008,0.223694,0.71392390736,0,0,0,235.8, -3.6, 2.5,0,0,1024,1024,1024,1024,0,0,0,0,255.7,0,0,46,3.674,3.674,3.673,3.67,0,0,6.063,77.54,41.737774301488,3.937008,6,P-GPS,
10500,2025-02-16 08:07:00,31.1821246857729,121.471942032163,3.937008,,,41.737774301488,3.937008,0,0.7078904426,2.26729337964,32,5,14.696,41.737774301488,3.937008,0.223694,0.71392390736,0,0,0,235.8, -3.9, 3,0,0,1024,1024,1024,1024,0,0,0,0,255.7,0,0,46,3.674,3.674,3.673,3.67,0,0,6.063,77.54,41.737774301488,3.937008,6,P-GPS,
10600,2025-02-16 08:07:00,31.1821246699182,121.471942050039,3.937008,,,41.737774301488,3.937008,0,0.70253939256,2.2753281568,32,5,14.696,41.737774301488,3.937008,0.223694,0.71392390736,0,0,0,235.6, -4.1, 2.5,0,0,1024,1024,1024,1024,0,0,0,0,255.7,0,0,46,3.674,3.674,3.673,3.67,0,0,6.063,77.54,41.737774301488,3.937008,6,P-GPS,
10700,2025-02-16 08:07:00,31.1821246135849,121.471942029653,3.937008,,,41.737774301488,3.937008,0,0.6815617016,2.29684390552,32,5,14.696,41.737774301488,3.937008,0.223694,0.71392390736,0,0,0,235.6, -4.1, 1.9,0,0,1024,1024,1024,1024,0,0,0,0,255.7,0,0,46,3.674,3.674,3.673,3.67,0,0,6.063,77.54,41.737774301488,3.937008,6,P-GPS,
10800,2025-02-16 08:07:00,31.1821246050425,121.471942029386,3.937008,,,41.737774301488,3.937008,0,0.67844818444,2.29996398436,32,5,14.696,41.737774301488,3.937008,0.223694,0.71392390736,0,0,0,235.5, -3.9, 1.9,0,0,1024,1024,1024,1024,0,0,0,0,255.7,0,0,46,3.674,3.674,3.673,3.67,0,0,6.063,77.54,41.737774301488,3.937008,6,P-GPS,
10900,2025-02-16 08:07:00,31.1821247087626,121.471942006762,3.937008,,,41.737774301488,3.937008,0,0.71574149272,2.33845808008,32,5,14.696,41.737774301488,3.937008,0.223694,0.71574149272,0,0,0,235.6, -3.8, 1.9,0,0,1024,1024,1024,1024,0,0,0,0,255.7,0,0,46,3.674,3.674,3.673,3.67,0,0,6.063,77.54,41.737774301488,3.937008,6,P-GPS,
11000,2025-02-16 08:07:00,31.182124676836,121.471942027987,3.937008,,,41.737774301488,3.937008,0,0.7045439858,2.35186031148,32,5,14.696,41.737774301488,3.937008,0.223694,0.71574149272,0,0,0,235.6, -3.7, 2.2,0,0,1024,1024,1024,1024,0,0,0,0,255.7,0,0,46,3.674,3.674,3.673,3.67,0,0,6.063,77.54,41.737774301488,3.937008,6,P-GPS,
11100,2025-02-16 08:07:00,31.1821248046424,121.471942027357,3.937008,,,41.737774301488,3.937008,0,0.75105645448,2.3984908904,32,5,14.696,41.737774301488,3.937008,0.223694,0.75105645448,0,0,0,235.7, -3.6, 2.3,0,0,1024,1024,1024,1024,0,0,0,0,255.7,0,0,46,3.674,3.674,3.673,3.67,0,0,6.063,77.54,41.737774301488,3.937008,6,P-GPS,
11200,2025-02-16 08:07:00,31.1821248070368,121.471942024596,3.937008,,,41.737774301488,3.937008,0,0.75187338364,2.39971792456,32,5,14.691,41.737774301488,3.937008,0.223694,0.75187338364,0,0,0,235.7, -3.2, 2.6,0,0,1024,1024,1024,1024,0,0,0,0,255.7,0,0,46,3.674,3.674,3.673,3.67,0,0,5.991,77.54,41.737774301488,3.937008,6,P-GPS,
11300,2025-02-16 08:07:00,31.1821248570642,121.471941893399,3.937008,,,41.737774301488,3.937008,0,0.76862863352,2.44455060316,32,5,14.691,41.737774301488,3.937008,0.223694,0.76862863352,0,0,0,235.6, -3.6, 2.6,0,0,1024,1024,1025,1024,0,0,0,0,255.7,0,0,46,3.674,3.674,3.673,3.67,0,0,5.991,77.54,41.737774301488,3.937008,6,P-GPS,
11400,2025-02-16 08:07:00,31.1821248781572,121.471941885473,3.937008,,,41.737774301488,3.937008,0,0.77630579912,2.45263459292,32,5,14.691,41.737774301488,3.937008,0.223694,0.77630579912,0,0,0,235.6, -4, 2.4,0,0,1024,1024,1025,1024,0,0,0,0,255.7,0,0,46,3.674,3.674,3.673,3.67,0,0,5.991,77.54,41.737774301488,3.937008,6,P-GPS,
11500,2025-02-16 08:07:01,31.1821248568976,121.471941891407,3.937008,,,41.737774301488,3.937008,0,0.76856301672,2.46061031496,32,5,14.691,41.737774301488,3.937008,0.223694,0.77630579912,0,0,0,235.6, -3.9, 2.1,0,0,1024,1024,1038,1024,0,0,2,0,255.7,0,0,46,3.674,3.674,3.673,3.67,0,0,5.991,77.54,41.737774301488,3.937008,6,P-GPS,
11600,2025-02-16 08:07:01,31.1821248563041,121.471941873851,3.937008,,,41.737774301488,3.937008,0,0.76832023456,2.46609587944,32,5,14.691,41.737774301488,3.937008,0.223694,0.77630579912,0,0,0,235.6, -3.9, 2,0,0,1024,1024,1055,1024,0,0,5,0,255.7,0,0,46,3.674,3.674,3.673,3.67,0,0,5.991,77.54,41.737774301488,3.937008,6,P-GPS,
11700,2025-02-16 08:07:01,31.1821249111386,121.471941880287,3.937008,,,41.737774301488,3.937008,0,0.78833007772,2.48620086696,32,5,14.691,41.737774301488,3.937008,0.223694,0.78833007772,0,0,0,235.6, -3.8, 2.2,0,0,1024,1024,1054,1024,0,0,5,0,255.7,0,0,46,3.674,3.674,3.673,3.67,0,0,5.991,77.54,41.737774301488,3.937008,6,P-GPS,
11800,2025-02-16 08:07:01,31.1821248968225,121.47194188677,3.937008,,,41.737774301488,3.937008,0,0.78311682296,2.49180454168,32,5,14.691,41.737774301488,3.937008,0.223694,0.78833007772,0,0,0,235.6, -3.6, 2.4,0,0,1024,1024,1051,1024,0,0,4,0,255.7,0,0,46,3.674,3.674,3.673,3.67,0,0,5.991,77.54,41.737774301488,3.937008,6,P-GPS,
11900,2025-02-16 08:07:01,31.1821249226775,121.471941908597,3.937008,,,41.737774301488,3.937008,0,0.79262141644,2.50343840032,32,5,14.691,41.737774301488,3.937008,0.223694,0.79262141644,0,0,0,235.6, -3.7, 2.4,0,0,1024,1024,1054,1024,0,0,5,0,255.7,0,0,46,3.674,3.674,3.673,3.67,0,0,5.991,77.54,41.737774301488,3.937008,6,P-GPS,
12000,2025-02-16 08:07:01,31.1821249314048,121.471941912842,3.937008,,,41.737774301488,3.937008,0,0.79582679712,2.50688656316,32,5,14.691,41.737774301488,3.937008,0.223694,0.79582679712,0,0,0,235.6, -3.6, 2.5,0,0,1024,1024,1062,1024,0,0,6,0,255.7,0,0,46,3.674,3.674,3.673,3.67,0,0,5.991,77.54,41.737774301488,3.937008,6,P-GPS,
12100,2025-02-16 08:07:01,31.1821250494561,121.47194179419,3.937008,,,41.737774301488,3.937008,0,0.83913388512,2.56369102692,32,5,14.691,41.737774301488,3.937008,0.223694,0.83913388512,0,0,0,235.6, -3.6, 2.5,0,0,1024,1024,1070,1024,0,0,7,0,255.7,0,0,46,3.674,3.674,3.673,3.67,0,0,5.991,77.54,41.737774301488,3.937008,6,P-GPS,
12200,2025-02-16 08:07:01,31.1821250510097,121.471941783037,3.937008,,,41.737774301488,3.937008,0,0.83980645732,2.56722121076,32,5,14.691,41.737774301488,3.937008,0.223694,0.83980645732,0,0,0,235.6, -3.6, 2.5,0,0,1024,1024,1069,1024,0,0,7,0,255.7,0,0,46,3.674,3.674,3.673,3.67,0,0,5.991,77.54,41.737774301488,3.937008,6,P-GPS,
12300,2025-02-16 08:07:01,31.1821250368613,121.471941786404,3.937008,,,41.737774301488,3.937008,0,0.8346128876,2.57248695896,32,5,14.692,41.737774301488,3.937008,0.223694,0.83980645732,0,0,0,235.6, -3.6, 2.4,0,0,1024,1024,1070,1024,0,0,7,0,255.7,0,0,46,3.668,3.666,3.668,3.663,0,0,5.718,77.54,41.737774301488,3.937008,6,P-GPS,
12400,2025-02-16 08:07:01,31.1821250442457,121.471941783898,3.937008,,,41.737774301488,3.937008,0,0.83733270396,2.57529207716,32,5,14.692,41.737774301488,3.937008,0.223694,0.83980645732,0,0,0,235.6, -3.6, 2.5,0,0,1024,1024,1080,1024,0,0,8,0,255.7,0,0,46,3.668,3.666,3.668,3.663,0,0,5.718,77.54,41.737774301488,3.937008,6,P-GPS,
12500,2025-02-16 08:07:02,31.182125039488,121.471941698765,3.937008,,,41.737774301488,3.937008,0,0.83688322888,2.60192265544,32,5,14.692,41.737774301488,3.937008,0.223694,0.83980645732,0,0,0,235.6, -3.7, 2.5,0,0,1024,1024,1091,1024,0,0,10,0,255.7,0,0,46,3.668,3.666,3.668,3.663,0,0,5.718,77.54,41.737774301488,3.937008,6,P-GPS,
12600,2025-02-16 08:07:02,31.182125041132,121.471941692182,3.937008,,,41.737774301488,3.937008,0,0.83761813704,2.60406504396,32,5,14.692,41.737774301488,3.937008,0.223694,0.83980645732,0,0,0,235.6, -3.7, 2.4,0,0,1024,1024,1108,1024,0,0,13,0,255.7,0,0,46,3.668,3.666,3.668,3.663,0,0,5.718,77.54,41.737774301488,3.937008,6,P-GPS,
12700,2025-02-16 08:07:02,31.1821251303725,121.471941688763,3.937008,,,41.737774301488,3.937008,0,0.8701771932,2.63664050432,32,5,14.692,41.737774301488,3.937008,0.223694,0.8701771932,0,0,0,235.6, -3.7, 2.5,0,0,1024,1024,1118,1024,0,0,14,0,255.7,0,0,46,3.668,3.666,3.668,3.663,0,0,5.718,77.54,41.737774301488,3.937008,6,P-GPS,
12800,2025-02-16 08:07:02,31.1821251267082,121.471941685919,3.937008,,,41.737774301488,3.937008,0,0.86890094644,2.63824483508,32,5,14.692,41.737774301488,3.937008,0.223694,0.8701771932,0,0,0,235.7, -3.6, 2.5,0,0,1024,1024,1138,1024,0,0,17,0,255.7,0,0,46,3.668,3.666,3.668,3.663,0,0,5.718,77.54,41.737774301488,3.937008,6,P-GPS,
12900,2025-02-16 08:07:02,31.1821251270544,121.471941604745,3.937008,,,41.737774301488,4.265092,0,0.8710794242,2.6635827624,32,5,14.692,41.737774301488,3.937008,0.223694,0.8710794242,0,0,-0.223694,235.6, -3.7, 2.8,0,0,1024,1024,1151,1024,0,0,19,0,255.7,0,0,46,3.668,3.666,3.668,3.663,0,0,5.718,77.54,41.737774301488,3.937008,6,P-GPS,
13000,2025-02-16 08:07:02,31.1821251381084,121.471941617015,3.937008,,,41.737774301488,4.265092,0,0.8747375608,2.6691437862,32,5,14.692,41.737774301488,3.937008,0.223694,0.8747375608,0,0,-0.223694,235.6, -3.8, 2.9,0,0,1024,1024,1156,1024,0,0,20,0,255.7,0,0,46,3.668,3.666,3.668,3.663,0,0,5.718,77.54,41.737774301488,3.937008,6,P-GPS,
13100,2025-02-16 08:07:02,31.1821251545384,121.471941515522,3.937008,,,41.737774301488,4.265092,0,0.88412404404,2.70138788172,32,5,14.692,41.737774301488,3.937008,0.223694,0.88412404404,0,0,-0.223694,235.6, -4, 2.7,0,0,1024,1024,1155,1024,0,0,20,0,255.7,0,0,46,3.668,3.666,3.668,3.663,0,0,5.718,77.54,41.737774301488,3.937008,6,P-GPS,
13200,2025-02-16 08:07:02,31.1821251834362,121.471941513188,4.265092,,,42.065858301488,4.265092,0,0.89467522548,2.71195546736,32,5,14.692,42.065858301488,4.265092,0.223694,0.89467522548,0,0,-0.223694,235.6, -4.2, 2.4,0,0,1024,1024,1154,1024,0,0,20,0,255.7,0,0,46,3.668,3.666,3.668,3.663,0,0,5.718,77.54,42.065858301488,4.265092,6,P-GPS,
13300,2025-02-16 08:07:02,31.1821252806632,121.471941495541,4.265092,,,42.065858301488,4.265092,0,0.93055777256,2.74785441864,32,5,14.654,42.065858301488,4.265092,0.223694,0.93055777256,0,0,-0.447388,235.6, -4.3, 2.3,0,0,1024,1024,1153,1024,0,0,20,0,255.7,0,0,46,3.664,3.663,3.666,3.659,0,0,6.302,77.54,42.065858301488,4.265092,6,P-GPS,
13400,2025-02-16 08:07:02,31.1821252963706,121.471941487978,4.265092,,,42.065858301488,4.265092,0,0.93654202472,2.7540519254,32,5,14.654,42.065858301488,4.265092,0.223694,0.93654202472,0,0,-0.447388,235.6, -4.2, 2.2,0,0,1024,1024,1151,1024,0,0,19,0,255.7,0,0,46,3.664,3.663,3.666,3.659,0,0,6.302,77.54,42.065858301488,4.265092,6,P-GPS,
13500,2025-02-16 08:07:03,31.1821253362665,121.471941470235,4.265092,,,42.065858301488,4.593176,0,0.95169294384,2.76962607288,32,5,14.654,42.065858301488,4.265092,0.223694,0.95169294384,0,0,-0.447388,235.6, -4, 2.2,0,0,1024,1024,1150,1024,0,0,19,0,255.7,0,0,46,3.664,3.663,3.666,3.659,0,0,6.302,77.54,42.065858301488,4.265092,6,P-GPS,
13600,2025-02-16 08:07:03,31.1821253332097,121.471941428521,4.593176,,,42.393942301488,4.593176,0,0.95238848192,2.7826936586,32,5,14.654,42.393942301488,4.593176,0.223694,0.95238848192,0,0,-0.447388,235.6, -3.8, 2.2,0,0,1024,1024,1150,1024,0,0,19,0,255.7,0,0,46,3.664,3.663,3.666,3.659,0,0,6.302,77.54,42.393942301488,4.593176,6,P-GPS,
13700,2025-02-16 08:07:03,31.1821253305873,121.471941333079,4.593176,,,42.393942301488,4.593176,0,0.95622378388,2.81250009,32,5,14.654,42.393942301488,4.593176,0.223694,0.95622378388,0,0,-0.447388,235.7, -3.6, 2.3,0,0,1024,1024,1151,1024,0,0,19,0,255.7,0,0,46,3.664,3.663,3.666,3.659,0,0,6.302,77.54,42.393942301488,4.593176,6,P-GPS,
13800,2025-02-16 08:07:03,31.1821253379964,121.47194129946,4.593176,,,42.393942301488,4.593176,0,0.9607775898,2.82333670452,32,5,14.654,42.393942301488,4.593176,0.223694,0.9607775898,0,0,-0.447388,235.7, -3.4, 2.2,0,0,1024,1024,1152,1024,0,0,19,0,255.7,0,0,46,3.664,3.663,3.666,3.659,0,0,6.302,77.54,42.393942301488,4.593176,6,P-GPS,
13900,2025-02-16 08:07:03,31.1821254515577,121.471941259202,4.593176,,,42.393942301488,4.92126,0,1.00383533396,2.86663395,32,5,14.654,42.393942301488,4.593176,0.223694,1.00383533396,0,0,-0.447388,235.7, -3.5, 2.1,0,0,1024,1024,1152,1024,0,0,19,0,255.7,0,0,46,3.664,3.663,3.666,3.659,0,0,6.302,77.54,42.393942301488,4.593176,6,P-GPS,
14000,2025-02-16 08:07:03,31.1821254501331,121.471941234157,4.593176,,,42.393942301488,4.92126,0,1.00484255184,2.87446859592,32,5,14.654,42.393942301488,4.593176,0.223694,1.00484255184,0,0,-0.447388,235.6, -3.4, 2,0,0,1024,1024,1151,1024,0,0,19,0,255.7,0,0,46,3.664,3.663,3.666,3.659,0,0,6.302,77.54,42.393942301488,4.593176,6,P-GPS,
14100,2025-02-16 08:07:03,31.1821255275777,121.471941155658,4.92126,,,42.722026301488,4.92126,0,1.0375492458,2.91186689108,32,5,14.654,42.722026301488,4.92126,0.223694,1.0375492458,0,0,-0.447388,235.6, -3.3, 2.1,0,0,1024,1024,1151,1024,0,0,19,0,255.7,0,0,46,3.664,3.663,3.666,3.659,0,0,6.302,77.54,42.722026301488,4.92126,6,P-GPS,
14200,2025-02-16 08:07:03,31.18212552731,121.471941106815,4.92126,,,42.722026301488,4.92126,0,1.04084320916,2.92711295456,32,5,14.643,42.722026301488,4.92126,0.223694,1.04084320916,0,0,-0.447388,235.7, -3.1, 2.2,0,0,1024,1024,1152,1024,0,0,19,0,255.7,0,0,46,3.665,3.663,3.664,3.659,0,0,6.347,77.54,42.722026301488,4.92126,6,P-GPS,
14300,2025-02-16 08:07:03,31.1821256254315,121.471941007795,4.92126,,,42.722026301488,4.92126,0,1.08299544148,2.974409544,32,5,14.643,42.722026301488,4.92126,0.223694,1.08299544148,0,0,-0.447388,235.7, -2.9, 2.2,0,0,1024,1024,1153,1024,0,0,20,0,255.7,0,0,46,3.665,3.663,3.664,3.659,0,0,6.347,77.54,42.722026301488,4.92126,6,P-GPS,
14400,2025-02-16 08:07:03,31.1821256174526,121.471940951023,4.92126,,,42.722026301488,5.249344,0,1.08473100584,2.99236886216,32,5,14.643,42.722026301488,4.92126,0.223694,1.08473100584,0,0,-0.447388,235.6, -2.6, 2.1,0,0,1024,1024,1149,1024,0,0,19,0,255.7,0,0,46,3.665,3.663,3.664,3.659,0,0,6.347,77.54,42.722026301488,4.92126,6,P-GPS,
14500,2025-02-16 08:07:04,31.1821256294377,121.471940899381,5.249344,,,43.050110301488,5.249344,0,1.09331040244,3.0090716186,32,5,14.643,43.050110301488,5.249344,0.223694,1.09331040244,0,0,-0.447388,235.6, -2.3, 2,0,0,1024,1024,1146,1024,0,0,18,0,255.7,0,0,46,3.665,3.663,3.664,3.659,0,0,6.347,77.54,43.050110301488,5.249344,6,P-GPS,
14600,2025-02-16 08:07:04,31.1821256344728,121.471940845914,5.249344,,,43.050110301488,5.249344,0,1.09981302732,3.02585967688,32,5,14.643,43.050110301488,5.249344,0.223694,1.09981302732,0,0,-0.447388,235.6, -2.2, 1.9,0,0,1024,1024,1149,1024,0,0,19,0,255.7,0,0,46,3.665,3.663,3.664,3.659,0,0,6.347,77.54,43.050110301488,5.249344,6,P-GPS,
14700,2025-02-16 08:07:04,31.1821257343415,121.471940825474,5.249344,,,43.050110301488,5.249344,0,1.13654203112,3.06285114788,32,5,14.643,43.050110301488,5.249344,0.223694,1.13654203112,0,0,-0.223694,235.6, -2.3, 2,0,0,1024,1024,1155,1024,0,0,20,0,255.7,0,0,46,3.665,3.663,3.664,3.659,0,0,6.347,77.54,43.050110301488,5.249344,6,P-GPS,
14800,2025-02-16 08:07:04,31.1821257186578,121.471940800638,5.249344,,,43.050110301488,5.249344,0,1.13332024624,3.07248697496,32,5,14.643,43.050110301488,5.249344,0.223694,1.13654203112,0,0,-0.223694,235.6, -2.4, 2,0,0,1024,1024,1156,1024,0,0,20,0,255.7,0,0,46,3.665,3.663,3.664,3.659,0,0,6.347,77.54,43.050110301488,5.249344,6,P-GPS,
14900,2025-02-16 08:07:04,31.1821258099551,121.471940784755,5.249344,,,43.050110301488,5.577428,0,1.16662405308,3.10616479756,32,5,14.643,43.050110301488,5.249344,0.223694,1.16662405308,0,0,-0.447388,235.6, -2.4, 2,0,0,1024,1024,1156,1024,0,0,20,0,255.7,0,0,46,3.665,3.663,3.664,3.659,0,0,6.347,77.54,43.050110301488,5.249344,6,P-GPS,
15000,2025-02-16 08:07:04,31.1821258050544,121.471940759178,5.577428,,,43.378194301488,5.577428,0,1.16726053604,3.11434393168,32,5,14.643,43.378194301488,5.577428,0.223694,1.16726053604,0,0,-0.447388,235.6, -2.5, 2.2,0,0,1024,1024,1159,1024,0,0,20,0,255.7,0,0,46,3.665,3.663,3.664,3.659,0,0,6.347,77.54,43.378194301488,5.577428,6,P-GPS,
15100,2025-02-16 08:07:04,31.1821258183717,121.471940652034,5.577428,,,43.378194301488,5.577428,0,1.18223757064,3.14813986452,32,5,14.643,43.378194301488,5.577428,0.223694,1.18223757064,0,0,-0.447388,235.7, -2.5, 2.2,0,0,1024,1024,1161,1024,0,0,21,0,255.7,0,0,46,3.665,3.663,3.664,3.659,0,0,6.347,77.54,43.378194301488,5.577428,6,P-GPS,
15200,2025-02-16 08:07:04,31.1821258118012,121.471940635914,5.577428,,,43.378194301488,5.577428,0,1.18160108768,3.15371401168,32,5,14.633,43.378194301488,5.577428,0.223694,1.18223757064,0,0,-0.447388,235.6, -2.3, 2.3,0,0,1024,1024,1160,1024,0,0,21,0,255.7,0,0,46,3.662,3.664,3.662,3.659,0,0,6.354,77.54,43.378194301488,5.577428,6,P-GPS,
15300,2025-02-16 08:07:04,31.1821258042856,121.471940681738,5.577428,,,43.378194301488,5.577428,0,1.1744094864,3.16827766044,32,5,14.633,43.378194301488,5.577428,0.223694,1.18223757064,0,0,-0.447388,235.6, -2.2, 2.4,0,0,1024,1024,1163,1024,0,0,21,0,255.7,0,0,46,3.662,3.664,3.662,3.659,0,0,6.354,77.54,43.378194301488,5.577428,6,P-GPS,
15400,2025-02-16 08:07:04,31.1821257880245,121.471940672439,5.905512,,,43.706278301488,5.905512,0,1.16970804268,3.17488199136,32,5,14.633,43.706278301488,5.905512,0.223694,1.18223757064,0,0,-0.447388,235.7, -2.2, 2.6,0,0,1024,1024,1165,1024,0,0,21,0,255.7,0,0,46,3.662,3.664,3.662,3.659,0,0,6.354,77.54,43.706278301488,5.905512,6,P-GPS,
15500,2025-02-16 08:07:05,31.1821259062865,121.47194058254,5.905512,,,43.706278301488,5.905512,0,1.21963258496,3.22635180928,32,5,14.633,43.706278301488,5.905512,0.223694,1.21963258496,0,0,-0.447388,235.7, -2.2, 2.8,0,0,1024,1024,1166,1024,0,0,22,0,255.7,0,0,46,3.662,3.664,3.662,3.659,0,0,6.354,77.54,43.706278301488,5.905512,6,P-GPS,
15600,2025-02-16 08:07:05,31.1821258868095,121.471940592273,5.905512,,,43.706278301488,5.905512,0,1.21191933012,3.23408146832,32,5,14.633,43.706278301488,5.905512,0.223694,1.21963258496,0,0,-0.447388,235.7, -2.2, 2.7,0,0,1024,1024,1166,1024,0,0,22,0,255.7,0,0,46,3.662,3.664,3.662,3.659,0,0,6.354,77.54,43.706278301488,5.905512,6,P-GPS,
15700,2025-02-16 08:07:05,31.1821257976818,121.471940611149,5.905512,,,43.706278301488,5.905512,0,1.17928809548,3.26712936964,32,5,14.633,43.706278301488,5.905512,0.223694,1.21963258496,0,0,-0.447388,235.7, -2.3, 2.8,0,0,1024,1024,1177,1024,0,0,23,0,255.7,0,0,46,3.662,3.664,3.662,3.659,0,0,6.354,77.54,43.706278301488,5.905512,6,P-GPS,
15800,2025-02-16 08:07:05,31.18212578367,121.471940616739,6.233596,,,44.034362301488,6.233596,0,1.17388783284,3.27252963228,32,5,14.633,44.034362301488,6.233596,0.223694,1.21963258496,0,0,-0.447388,235.6, -2.5, 2.7,0,0,1024,1024,1177,1024,0,0,23,0,255.7,0,0,46,3.662,3.664,3.662,3.659,0,0,6.354,77.54,44.034362301488,6.233596,6,P-GPS,
15900,2025-02-16 08:07:05,31.1821258012525,121.471940626127,6.233596,,,44.034362301488,6.233596,0,1.17896657316,3.27958343828,32,5,14.633,44.034362301488,6.233596,0.223694,1.21963258496,0,0,-0.447388,235.6, -2.6, 2.9,0,0,1024,1024,1195,1024,0,0,26,0,255.7,0,0,46,3.662,3.664,3.662,3.659,0,0,6.354,77.54,44.034362301488,6.233596,6,P-GPS,
16000,2025-02-16 08:07:05,31.1821257721246,121.47194065332,6.233596,,,44.034362301488,6.233596,0,1.16614505044,3.2931759584,32,5,14.633,44.034362301488,6.233596,0.223694,1.21963258496,0,0,-0.671082,235.5, -2.5, 3.3,0,0,1024,1024,1202,1024,0,0,27,0,255.7,0,0,46,3.662,3.664,3.662,3.659,0,0,6.354,77.54,44.034362301488,6.233596,6,P-GPS,
16100,2025-02-16 08:07:05,31.182125878938,121.471940738877,6.56168,,,44.362446301488,6.56168,0,1.19488520884,3.3404200544,32,5,14.633,44.362446301488,6.56168,0.223694,1.21963258496,0,0,-0.671082,235.4, -2.6, 3.2,0,0,1024,1024,1211,1024,0,0,28,0,255.7,0,0,46,3.662,3.664,3.662,3.659,0,0,6.354,77.54,44.362446301488,6.56168,6,P-GPS,
16200,2025-02-16 08:07:05,31.1821258608017,121.471940768418,6.56168,,,44.362446301488,6.56168,0,1.18585633716,3.3517717608,32,5,14.633,44.362446301488,6.56168,0.223694,1.21963258496,0,0,-0.894776,235.5, -2.8, 3.2,0,0,1024,1024,1212,1024,0,0,28,0,255.7,0,0,46,3.662,3.664,3.662,3.659,0,0,6.354,77.54,44.362446301488,6.56168,6,P-GPS,
16300,2025-02-16 08:07:05,31.1821259263989,121.471940845194,6.56168,,,44.362446301488,6.56168,0,1.20217523532,3.3856300296,32,5,14.622,44.362446301488,6.56168,0.223694,1.21963258496,0,0,-0.894776,235.6, -2.9, 3.2,0,0,1024,1024,1221,1024,0,0,30,0,255.7,0,0,46,3.659,3.661,3.658,3.655,0,0,6.418,77.72,44.362446301488,6.56168,6,P-GPS,
16400,2025-02-16 08:07:05,31.1821259547311,121.471940885601,6.889764,,,44.690530301488,6.889764,0,1.20887142976,3.4019358044,32,5,14.622,44.690530301488,6.889764,0.223694,1.21963258496,0,0,-0.894776,235.6, -3.1, 3.1,0,0,1024,1024,1228,1024,0,0,31,0,255.7,0,0,46,3.659,3.661,3.658,3.655,0,0,6.418,77.72,44.690530301488,6.889764,6,P-GPS,
16500,2025-02-16 08:07:06,31.1821261632228,121.471940966595,6.889764,,,44.690530301488,6.889764,0,1.2767552902,3.482119534,32,5,14.622,44.690530301488,6.889764,0.223694,1.2767552902,0,0,-1.11847,235.5, -3.2, 2.9,0,0,1024,1024,1231,1024,0,0,31,0,255.7,0,0,46,3.659,3.661,3.658,3.655,0,0,6.418,77.72,44.690530301488,6.889764,6,P-GPS,
16600,2025-02-16 08:07:06,31.182126184189,121.471941018992,7.217848,,,45.018614301488,7.217848,0,1.28071854492,3.500164154,32,5,14.622,45.018614301488,7.217848,0.223694,1.28071854492,0,0,-1.11847,235.5, -3.4, 2.8,0,0,1024,1024,1234,1024,0,0,32,0,255.7,0,0,46,3.659,3.661,3.658,3.655,0,0,6.418,77.72,45.018614301488,7.217848,6,P-GPS,
16700,2025-02-16 08:07:06,31.1821262653408,121.471941067127,7.545932,,,45.346698301488,7.545932,0,1.30672904444,3.5333662548,32,5,14.622,45.346698301488,7.545932,0.223694,1.30672904444,0,0,-1.11847,235.5, -3.5, 2.8,0,0,1024,1024,1235,1024,0,0,32,0,255.7,0,0,46,3.659,3.661,3.658,3.655,0,0,6.418,77.72,45.346698301488,7.545932,6,P-GPS,
16800,2025-02-16 08:07:06,31.1821262988458,121.471941091594,7.545932,,,45.346698301488,7.545932,0,1.31729334924,3.5477691424,32,5,14.622,45.346698301488,7.545932,0.223694,1.31729334924,0,0,-1.11847,235.5, -3.5, 2.7,0,0,1024,1024,1235,1024,0,0,32,0,255.7,0,0,46,3.659,3.661,3.658,3.655,0,0,6.418,77.72,45.346698301488,7.545932,6,P-GPS,
16900,2025-02-16 08:07:06,31.1821264746034,121.471940917545,7.874016,,,45.674782301488,7.874016,0,1.39097117312,3.6318242632,32,5,14.622,45.674782301488,7.874016,0.223694,1.39097117312,0,0,-1.342164,235.5, -3.6, 2.5,0,0,1024,1024,1235,1024,0,0,32,0,255.7,0,0,46,3.659,3.661,3.658,3.655,0,0,6.418,77.72,45.674782301488,7.874016,6,P-GPS,
17000,2025-02-16 08:07:06,31.18212651687,121.47194090754,7.874016,,,45.674782301488,7.874016,0,1.40670280092,3.6475722952,32,5,14.622,45.674782301488,7.874016,0.223694,1.40670280092,0,0,-1.342164,235.4, -3.6, 2.3,0,0,1024,1024,1235,1024,0,0,32,0,255.7,0,0,46,3.659,3.661,3.658,3.655,0,0,6.418,77.72,45.674782301488,7.874016,6,P-GPS,
17100,2025-02-16 08:07:06,31.1821265908998,121.471940680395,8.2021,,,46.002866301488,8.2021,0,1.449639154,3.723425316,32,5,14.622,46.002866301488,8.2021,0.223694,1.449639154,0,0,-1.342164,235.6, -3.5, 2.3,0,0,1024,1024,1235,1024,0,0,32,0,255.7,0,0,46,3.659,3.661,3.658,3.655,0,0,6.418,77.72,46.002866301488,8.2021,6,P-GPS,
17200,2025-02-16 08:07:06,31.1821266284883,121.471940641572,8.530184,,,46.330950301488,8.530184,0,1.46602366896,3.7417324032,32,5,14.622,46.330950301488,8.530184,0.223694,1.46602366896,0,0,-1.342164,235.6, -3.5, 2.2,0,0,1024,1024,1235,1024,0,0,32,0,255.7,0,0,46,3.652,3.652,3.65,3.645,0,0,6.418,77.72,46.330950301488,8.530184,6,P-GPS,
17300,2025-02-16 08:07:06,31.18212670007,121.471940544823,8.530184,,,46.330950301488,8.530184,0,1.49930122908,3.781660226,32,5,14.622,46.330950301488,8.530184,0.223694,1.49930122908,0,0,-1.342164,235.6, -3.3, 2,0,0,1024,1024,1237,1024,0,0,32,0,255.7,0,0,46,3.652,3.652,3.65,3.645,0,0,6.418,77.72,46.330950301488,8.530184,6,P-GPS,
17400,2025-02-16 08:07:06,31.1821267524788,121.471940534966,8.858268,,,46.659034301488,8.858268,0,1.51853023232,3.801017182,32,5,14.622,46.659034301488,8.858268,0.223694,1.51853023232,0,0,-1.342164,235.7, -3.4, 1.7,0,0,1024,1024,1238,1024,0,0,32,0,255.7,0,0,46,3.652,3.652,3.65,3.645,0,0,6.418,77.72,46.659034301488,8.858268,6,P-GPS,
17500,2025-02-16 08:07:07,31.1821266958605,121.471940493465,8.858268,,,46.659034301488,9.186352,0,1.50233600608,3.8253938232,32,5,14.622,46.659034301488,8.858268,0.223694,1.51853023232,0,0,-1.342164,235.7, -3.7, 1.6,0,0,1024,1024,1238,1024,0,0,32,0,255.7,0,0,46,3.652,3.652,3.65,3.645,0,0,6.418,77.72,46.659034301488,8.858268,6,P-GPS,
17600,2025-02-16 08:07:07,31.1821267220263,121.471940503565,9.186352,,,46.987118301488,9.186352,0,1.51059059952,3.835466002,32,5,14.622,46.987118301488,9.186352,0.223694,1.51853023232,0,0,-1.342164,235.7, -3.9, 1.8,0,0,1024,1024,1239,1024,0,0,33,0,255.7,0,0,46,3.652,3.652,3.65,3.645,0,0,6.418,77.72,46.987118301488,9.186352,6,P-GPS,
17700,2025-02-16 08:07:07,31.1821267602427,121.471940505601,9.514436,,,47.315202301488,9.514436,0,1.52379269968,3.849409572,32,5,14.622,47.315202301488,9.514436,0.223694,1.52379269968,0,0,-1.342164,235.6, -3.7, 1.8,0,0,1024,1024,1239,1024,0,0,33,0,255.7,0,0,46,3.652,3.652,3.65,3.645,0,0,6.418,77.72,47.315202301488,9.514436,6,P-GPS,
17800,2025-02-16 08:07:07,31.1821267564645,121.471940471846,9.514436,,,47.315202301488,9.514436,0,1.52545280472,3.8600394936,32,5,14.622,47.315202301488,9.514436,0.223694,1.52545280472,0,0,-1.342164,235.7, -3.4, 2,0,0,1024,1024,1240,1024,0,0,33,0,255.7,0,0,46,3.652,3.652,3.65,3.645,0,0,6.418,77.72,47.315202301488,9.514436,6,P-GPS,
